$GPGGA,083901.000,4926.7633,N,01100.4540,E,1,09,1.1,343.7,M,47.8,M,,0000*53
$GPGLL,4926.7633,N,01100.4540,E,083901.000,A,A*57
$GPGSA,A,3,21,18,27,19,15,30,16,04,22,,,,1.8,1.1,1.4*3D
$GPGSV,3,1,12,27,88,226,34,22,62,136,39,19,56,299,33,18,46,067,45*74
$GPGSV,3,2,12,16,36,197,35,04,25,257,32,21,25,072,35,11,12,270,*73
$GPGSV,3,3,12,15,12,040,43,30,07,318,33,07,06,288,25,14,01,136,34*73
$GPRMC,083901.000,A,4926.7633,N,01100.4540,E,0.04,91.65,281114,,,A*50
!AIVDO,1,1,,,B>pf?VP000<V=v74dC4qCwPTkP06,0*4B
$GPVTG,91.65,T,,M,0.04,N,0.1,K,A*33
$GPGGA,083902.000,4926.7633,N,01100.4540,E,1,09,1.1,343.6,M,47.8,M,,0000*51
$GPGLL,4926.7633,N,01100.4540,E,083902.000,A,A*54
$GPGSA,A,3,21,18,27,19,15,30,16,04,22,,,,1.8,1.1,1.4*3D
$GPRMC,083902.000,A,4926.7633,N,01100.4540,E,0.03,90.36,281114,,,A*53
!AIVDO,1,1,,,B>pf?VP000<V=v74dC4pOwQ4kP06,0*27
$GPVTG,90.36,T,,M,0.03,N,0.1,K,A*33
$GPGGA,083903.000,4926.7633,N,01100.4540,E,1,09,1.1,343.5,M,47.8,M,,0000*53
$GPGLL,4926.7633,N,01100.4540,E,083903.000,A,A*55
$GPGSA,A,3,21,18,27,19,15,30,16,04,22,,,,1.8,1.1,1.4*3D
$GPRMC,083903.000,A,4926.7633,N,01100.4540,E,0.04,76.23,281114,,,A*59
!AIVDO,1,1,,,B>pf?VP000<V=v74dC4gcwQTkP06,0*7C
$GPVTG,76.23,T,,M,0.04,N,0.1,K,A*38
!AIVDM,1,1,,B,1>O:wDNP000jHdNLBh3f4?wt1l00,0*2C
$GPGGA,083904.000,4926.7632,N,01100.4540,E,1,10,1.0,343.4,M,47.8,M,,0000*5D
$GPGLL,4926.7632,N,01100.4540,E,083904.000,A,A*53
$GPGSA,A,3,21,18,27,19,15,30,16,04,22,11,,,1.7,1.0,1.3*34
$GPRMC,083904.000,A,4926.7632,N,01100.4540,E,0.07,82.06,281114,,,A*50
!AIVDO,1,1,,,B>pf?VP000<V=v74dC0kCwR4kP06,0*37
$GPVTG,82.06,T,,M,0.07,N,0.1,K,A*37
$GPGGA,083905.000,4926.7632,N,01100.4540,E,1,10,1.0,343.4,M,47.8,M,,0000*5C
$GPGLL,4926.7632,N,01100.4540,E,083905.000,A,A*52
$GPGSA,A,3,21,18,27,19,15,30,16,04,22,11,,,1.7,1.0,1.3*34
$GPRMC,083905.000,A,4926.7632,N,01100.4540,E,0.06,52.42,281114,,,A*5D
!AIVDO,1,1,,,B>pf?VP000<V=v74dC0PkwRTkP06,0*44
$GPVTG,52.42,T,,M,0.06,N,0.1,K,A*3B
$GPGGA,083906.000,4926.7632,N,01100.4540,E,1,10,1.0,343.3,M,47.8,M,,0000*58
$GPGLL,4926.7632,N,01100.4540,E,083906.000,A,A*51
$GPGSA,A,3,21,18,27,19,15,30,16,04,22,11,,,1.7,1.0,1.3*34
$GPGSV,3,1,12,27,88,226,35,22,62,136,40,19,56,299,34,18,46,067,45*7C
$GPGSV,3,2,12,16,36,197,35,04,25,257,33,21,25,072,36,11,12,270,26*75
$GPGSV,3,3,12,15,12,040,43,30,07,318,33,07,06,288,25,14,01,136,34*73
$GPRMC,083906.000,A,4926.7632,N,01100.4540,E,0.08,76.12,281114,,,A*53
!AIVDO,1,1,,,B>pf?VP000<V=v74dC0gWwS4kP06,0*2E
$GPVTG,76.12,T,,M,0.08,N,0.1,K,A*36
$GPGGA,083907.000,4926.7632,N,01100.4540,E,1,10,1.0,343.3,M,47.8,M,,0000*59
$GPGLL,4926.7632,N,01100.4540,E,083907.000,A,A*50
$GPGSA,A,3,21,18,27,19,15,30,16,04,22,11,,,1.7,1.0,1.3*34
$GPRMC,083907.000,A,4926.7632,N,01100.4540,E,0.09,80.00,281114,,,A*59
!AIVDO,1,1,,,B>pf?VP000<V=v74dC0j3wSTkP06,0*27
$GPVTG,80.00,T,,M,0.09,N,0.2,K,A*3E
!AIVDM,1,1,,B,1>O:wDNP000jHdRLBh4f4?wt1l00,0*37
$GPGGA,083908.000,4926.7633,N,01100.4540,E,1,10,1.0,343.3,M,47.8,M,,0000*57
$GPGLL,4926.7633,N,01100.4540,E,083908.000,A,A*5E
$GPGSA,A,3,21,18,27,19,15,30,16,04,22,11,,,1.7,1.0,1.3*34
$GPRMC,083908.000,A,4926.7633,N,01100.4540,E,0.10,69.11,281114,,,A*58
!AIVDO,1,1,,,B>pf?VP00@<V=v74dC4c?wT4kP06,0*31
$GPVTG,69.11,T,,M,0.10,N,0.2,K,A*31
$GPGGA,083909.000,4926.7633,N,01100.4540,E,1,10,1.0,343.3,M,47.8,M,,0000*56
$GPGLL,4926.7633,N,01100.4540,E,083909.000,A,A*5F
$GPGSA,A,3,21,18,27,19,15,30,16,04,22,11,,,1.7,1.0,1.3*34
$GPRMC,083909.000,A,4926.7633,N,01100.4540,E,0.06,30.83,281114,,,A*59
!AIVDO,1,1,,,B>pf?VP000<V=v74dC4CCwTTkP06,0*7D
$GPVTG,30.83,T,,M,0.06,N,0.1,K,A*32
$GPGGA,083910.000,4926.7633,N,01100.4540,E,1,10,1.0,343.3,M,47.8,M,,0000*5E
$GPGLL,4926.7633,N,01100.4540,E,083910.000,A,A*57
$GPGSA,A,3,21,18,27,19,15,30,16,04,22,11,,,1.7,1.0,1.3*34
$GPRMC,083910.000,A,4926.7633,N,01100.4540,E,0.09,65.78,281114,,,A*5A
!AIVDO,1,1,,,B>pf?VP000<V=v74dC4a7wU4kP06,0*4A
$GPVTG,65.78,T,,M,0.09,N,0.2,K,A*3A
$GPGGA,083911.000,4926.7633,N,01100.4540,E,1,10,1.0,343.3,M,47.8,M,,0000*5F
$GPGLL,4926.7633,N,01100.4540,E,083911.000,A,A*56
$GPGSA,A,3,21,18,27,19,15,30,16,04,22,11,,,1.7,1.0,1.3*34
$GPGSV,3,1,12,27,88,226,38,22,62,136,40,19,56,299,34,18,46,067,46*72
$GPGSV,3,2,12,16,36,197,35,04,25,257,33,21,25,072,37,11,12,270,27*75
$GPGSV,3,3,12,15,12,040,45,30,07,318,34,07,06,288,25,14,01,136,34*72
$GPRMC,083911.000,A,4926.7633,N,01100.4540,E,0.06,42.60,281114,,,A*58
!AIVDO,1,1,,,B>pf?VP000<V=v74dC4JcwUTkP06,0*55
$GPVTG,42.60,T,,M,0.06,N,0.1,K,A*3A
!AIVDM,1,1,,B,1>O:wDNP000jHdTLBh5>4?wt1l00,0*68
$GPGGA,083912.000,4926.7633,N,01100.4539,E,1,10,1.0,343.3,M,47.8,M,,0000*52
$GPGLL,4926.7633,N,01100.4539,E,083912.000,A,A*5B
$GPGSA,A,3,21,18,27,19,15,30,16,04,22,11,,,1.7,1.0,1.3*34
$GPRMC,083912.000,A,4926.7633,N,01100.4539,E,0.06,52.35,281114,,,A*54
!AIVDO,1,1,,,B>pf?VP000<V=uW4dC4PgwV4kP06,0*4B
$GPVTG,52.35,T,,M,0.06,N,0.1,K,A*3B
$GPGGA,083913.000,4926.7633,N,01100.4539,E,1,10,1.0,343.3,M,47.8,M,,0000*53
$GPGLL,4926.7633,N,01100.4539,E,083913.000,A,A*5A
$GPGSA,A,3,21,18,27,19,15,30,16,04,22,11,,,1.7,1.0,1.3*34
$GPRMC,083913.000,A,4926.7633,N,01100.4539,E,0.06,79.32,281114,,,A*5B
!AIVDO,1,1,,,B>pf?VP000<V=uW4dC4iWwVTkP06,0*22
$GPVTG,79.32,T,,M,0.06,N,0.1,K,A*35
$GPGGA,083914.000,4926.7632,N,01100.4538,E,1,10,1.0,343.2,M,47.8,M,,0000*55
$GPGLL,4926.7632,N,01100.4538,E,083914.000,A,A*5D
$GPGSA,A,3,21,18,27,19,15,30,16,04,22,11,,,1.7,1.0,1.3*34
$GPRMC,083914.000,A,4926.7632,N,01100.4538,E,0.05,81.82,281114,,,A*53
!AIVDO,1,1,,,B>pf?VP000<V=u74dC0k;wW4kP06,0*49
$GPVTG,81.82,T,,M,0.05,N,0.1,K,A*3A
$GPGGA,083915.000,4926.7632,N,01100.4538,E,1,10,1.0,343.1,M,47.8,M,,0000*57
$GPGLL,4926.7632,N,01100.4538,E,083915.000,A,A*5C
$GPGSA,A,3,21,18,27,19,15,30,16,04,22,11,,,1.7,1.0,1.3*34
$GPRMC,083915.000,A,4926.7632,N,01100.4538,E,0.05,80.60,281114,,,A*5F
!AIVDO,1,1,,,B>pf?VP000<V=u74dC0jKwWTkP06,0*58
$GPVTG,80.60,T,,M,0.05,N,0.1,K,A*37
!AIVDM,1,1,,B,1>O:wDNP000jHdVLBh6>4?wt1l00,0*69
$GPGGA,083916.000,4926.7632,N,01100.4537,E,1,09,1.1,343.1,M,47.8,M,,0000*52
$GPGLL,4926.7632,N,01100.4537,E,083916.000,A,A*50
$GPGSA,A,3,21,18,27,19,15,30,16,04,22,,,,1.8,1.1,1.4*3D
$GPGSV,3,1,12,27,87,212,38,22,62,135,40,19,57,299,34,18,46,066,46*79
$GPGSV,3,2,12,16,35,197,36,04,26,257,33,21,25,073,38,11,12,270,*7D
$GPGSV,3,3,12,15,12,039,46,30,07,318,34,07,06,288,,14,01,135,34*7B
$GPRMC,083916.000,A,4926.7632,N,01100.4537,E,0.05,93.10,281114,,,A*56
!AIVDO,1,1,,,B>pf?VP000<V=tW4dC0r?w`4kP06,0*02
$GPVTG,93.10,T,,M,0.05,N,0.1,K,A*32
$GPGGA,083917.000,4926.7631,N,01100.4537,E,1,09,1.1,343.0,M,47.8,M,,0000*51
$GPGLL,4926.7631,N,01100.4537,E,083917.000,A,A*52
$GPGSA,A,3,21,18,27,19,15,30,16,04,22,,,,1.8,1.1,1.4*3D
$GPRMC,083917.000,A,4926.7631,N,01100.4537,E,0.04,81.17,281114,,,A*51
!AIVDO,1,1,,,B>pf?VP000<V=tW4dBtjgw`TkP06,0*67
$GPVTG,81.17,T,,M,0.04,N,0.1,K,A*37
$GPGGA,083918.000,4926.7631,N,01100.4536,E,1,09,1.1,342.9,M,47.8,M,,0000*57
$GPGLL,4926.7631,N,01100.4536,E,083918.000,A,A*5C
$GPGSA,A,3,21,18,27,19,15,30,16,04,22,,,,1.8,1.1,1.4*3D
$GPRMC,083918.000,A,4926.7631,N,01100.4536,E,0.04,89.56,281114,,,A*52
!AIVDO,1,1,,,B>pf?VP000<V=t74dBtowwa4kP06,0*73
$GPVTG,89.56,T,,M,0.04,N,0.1,K,A*3A
$GPGGA,083919.000,4926.7630,N,01100.4535,E,1,10,1.0,342.8,M,47.8,M,,0000*5C
$GPGLL,4926.7630,N,01100.4535,E,083919.000,A,A*5F
$GPGSA,A,3,21,18,27,19,15,30,16,04,07,22,,,1.7,1.0,1.3*33
$GPRMC,083919.000,A,4926.7630,N,01100.4535,E,0.04,99.98,281114,,,A*52
!AIVDO,1,1,,,B>pf?VP000<V=sW4dBpvOwaTkP06,0*51
$GPVTG,99.98,T,,M,0.04,N,0.1,K,A*39
$GPGGA,083920.000,4926.7630,N,01100.4535,E,1,09,1.1,342.7,M,47.8,M,,0000*50
$GPGLL,4926.7630,N,01100.4535,E,083920.000,A,A*55
$GPGSA,A,3,21,18,27,19,15,30,16,04,22,,,,1.8,1.1,1.4*3D
$GPRMC,083920.000,A,4926.7630,N,01100.4535,E,0.05,99.28,281114,,,A*52
!AIVDO,1,1,,,B>pf?VP000<V=sW4dBpv3wb4kP06,0*4E
$GPVTG,99.28,T,,M,0.05,N,0.1,K,A*33
$GPGGA,083921.000,4926.7629,N,01100.4534,E,1,09,1.1,342.6,M,47.8,M,,0000*59
$GPGLL,4926.7629,N,01100.4534,E,083921.000,A,A*5D
$GPGSA,A,3,21,18,27,19,15,30,16,04,22,,,,1.8,1.1,1.4*3D
$GPGSV,3,1,12,27,87,212,38,22,62,135,39,19,57,299,35,18,46,066,46*76
$GPGSV,3,2,12,16,35,197,36,04,26,257,33,21,25,073,38,11,12,270,*7D
$GPGSV,3,3,12,15,12,039,46,30,07,318,34,07,06,288,26,14,01,135,28*72
$GPRMC,083921.000,A,4926.7629,N,01100.4534,E,0.04,101.50,281114,,,A*64
!AIVDO,1,1,,,B>pf?VP000<V=s74dBlwOwbTkP06,0*2F
$GPVTG,101.50,T,,M,0.04,N,0.1,K,A*0D
$GPGGA,083922.000,4926.7629,N,01100.4533,E,1,09,1.1,342.4,M,47.8,M,,0000*5F
$GPGLL,4926.7629,N,01100.4533,E,083922.000,A,A*59
$GPGSA,A,3,21,18,27,19,15,30,16,04,22,,,,1.8,1.1,1.4*3D
$GPRMC,083922.000,A,4926.7629,N,01100.4533,E,0.05,92.03,281114,,,A*5C
!AIVDO,1,1,,,B>pf?VP000<V=rW4dBlqSwc4kP06,0*35
$GPVTG,92.03,T,,M,0.05,N,0.1,K,A*31
$GPGGA,083923.000,4926.7628,N,01100.4533,E,1,09,1.1,342.3,M,47.8,M,,0000*58
$GPGLL,4926.7628,N,01100.4533,E,083923.000,A,A*59
$GPGSA,A,3,21,18,27,19,15,30,16,04,22,,,,1.8,1.1,1.4*3D
$GPRMC,083923.000,A,4926.7628,N,01100.4533,E,0.04,109.21,281114,,,A*6E
!AIVDO,1,1,,,B>pf?VP000<V=rW4dBi4CwcTkP06,0*05
$GPVTG,109.21,T,,M,0.04,N,0.1,K,A*03
$GPGGA,083924.000,4926.7627,N,01100.4532,E,1,09,1.1,342.2,M,47.8,M,,0000*50
$GPGLL,4926.7627,N,01100.4532,E,083924.000,A,A*50
$GPGSA,A,3,21,18,27,19,15,30,16,04,22,,,,1.8,1.1,1.4*3D
$GPRMC,083924.000,A,4926.7627,N,01100.4532,E,0.06,107.54,281114,,,A*69
!AIVDO,1,1,,,B>pf?VP000<V=r74dBe3?wd4kP06,0*75
$GPVTG,107.54,T,,M,0.06,N,0.1,K,A*0D
$GPGGA,083925.000,4926.7627,N,01100.4531,E,1,09,1.1,342.1,M,47.8,M,,0000*51
$GPGLL,4926.7627,N,01100.4531,E,083925.000,A,A*52
$GPGSA,A,3,21,18,27,19,15,30,16,04,22,,,,1.8,1.1,1.4*3D
$GPRMC,083925.000,A,4926.7627,N,01100.4531,E,0.04,105.83,281114,,,A*61
!AIVDO,1,1,,,B>pf?VP000<V=qW4dBe2;wdTkP06,0*73
$GPVTG,105.83,T,,M,0.04,N,0.1,K,A*07
$GPGGA,083926.000,4926.7626,N,01100.4531,E,1,09,1.1,341.9,M,47.8,M,,0000*58
$GPGLL,4926.7626,N,01100.4531,E,083926.000,A,A*50
$GPGSA,A,3,21,18,27,19,15,30,16,04,22,,,,1.8,1.1,1.4*3D
$GPGSV,3,1,12,27,87,212,38,22,62,135,40,19,57,299,35,18,46,066,46*78
$GPGSV,3,2,12,16,35,197,36,04,26,257,33,21,25,073,38,11,12,270,*7D
$GPGSV,3,3,12,15,12,039,47,30,07,318,35,07,06,288,,14,01,135,29*77
$GPRMC,083926.000,A,4926.7626,N,01100.4531,E,0.04,103.45,281114,,,A*6F
!AIVDO,1,1,,,B>pf?VP000<V=qW4dBa0cwe4kP06,0*4C
$GPVTG,103.45,T,,M,0.04,N,0.1,K,A*0B
$GPGGA,083927.000,4926.7625,N,01100.4530,E,1,09,1.1,341.8,M,47.8,M,,0000*5A
$GPGLL,4926.7625,N,01100.4530,E,083927.000,A,A*53
$GPGSA,A,3,21,18,27,19,15,30,16,04,22,,,,1.8,1.1,1.4*3D
$GPRMC,083927.000,A,4926.7625,N,01100.4530,E,0.05,105.51,281114,,,A*6E
!AIVDO,1,1,,,B>pf?VP000<V=q74dBU1wweTkP06,0*6D
$GPVTG,105.51,T,,M,0.05,N,0.1,K,A*09
$GPGGA,083928.000,4926.7625,N,01100.4529,E,1,09,1.1,341.7,M,47.8,M,,0000*52
$GPGLL,4926.7625,N,01100.4529,E,083928.000,A,A*54
$GPGSA,A,3,21,18,27,19,15,30,16,04,22,,,,1.8,1.1,1.4*3D
$GPRMC,083928.000,A,4926.7625,N,01100.4529,E,0.04,113.28,281114,,,A*61
!AIVDO,1,1,,,B>pf?VP000<V=pW4dBU6kwf4kP06,0*74
$GPVTG,113.28,T,,M,0.04,N,0.1,K,A*01
$GPGGA,083929.000,4926.7624,N,01100.4528,E,1,10,1.0,341.5,M,47.8,M,,0000*58
$GPGLL,4926.7624,N,01100.4528,E,083929.000,A,A*55
$GPGSA,A,3,21,18,27,19,15,30,16,04,07,22,,,1.7,1.0,1.3*33
$GPRMC,083929.000,A,4926.7624,N,01100.4528,E,0.01,192.28,281114,,,A*6C
!AIVDO,1,1,,,B>pf?VP000<V=p74dBQp;wfTkP06,0*66
$GPVTG,192.28,T,,M,0.01,N,0.0,K,A*0C
$GPGGA,083930.000,4926.7623,N,01100.4527,E,1,10,1.0,341.4,M,47.8,M,,0000*59
$GPGLL,4926.7623,N,01100.4527,E,083930.000,A,A*55
$GPGSA,A,3,21,18,27,19,15,30,16,04,07,22,,,1.7,1.0,1.3*33
$GPRMC,083930.000,A,4926.7623,N,01100.4527,E,0.08,111.70,281114,,,A*63
!AIVDO,1,1,,,B>pf?VP000<V=oW4dBM5owg4kP06,0*75
$GPVTG,111.70,T,,M,0.08,N,0.1,K,A*02
$GPGGA,083931.000,4926.7622,N,01100.4526,E,1,10,1.0,341.3,M,47.8,M,,0000*5F
$GPGLL,4926.7622,N,01100.4526,E,083931.000,A,A*54
$GPGSA,A,3,21,18,27,19,15,30,16,04,07,22,,,1.7,1.0,1.3*33
$GPGSV,3,1,12,27,87,212,37,22,62,135,40,19,57,299,35,18,46,066,45*74
$GPGSV,3,2,12,16,35,197,35,04,26,257,34,21,25,073,38,11,12,270,*79
$GPGSV,3,3,12,15,12,039,47,30,07,318,34,07,06,288,26,14,01,135,28*73
$GPRMC,083931.000,A,4926.7622,N,01100.4526,E,0.02,109.48,281114,,,A*6A
!AIVDO,1,1,,,B>pf?VP000<V=o74dBI4KwgTkP06,0*54
$GPVTG,109.48,T,,M,0.02,N,0.0,K,A*0B
$GPGGA,083932.000,4926.7622,N,01100.4526,E,1,10,1.0,341.2,M,47.8,M,,0000*5D
$GPGLL,4926.7622,N,01100.4526,E,083932.000,A,A*57
$GPGSA,A,3,21,18,27,19,15,30,16,04,07,22,,,1.7,1.0,1.3*33
$GPRMC,083932.000,A,4926.7622,N,01100.4526,E,0.06,79.03,281114,,,A*54
!AIVDO,1,1,,,B>pf?VP000<V=o74dBHiKwh4kP06,0*67
$GPVTG,79.03,T,,M,0.06,N,0.1,K,A*37
$GPGGA,083933.000,4926.7621,N,01100.4525,E,1,10,1.0,341.1,M,47.8,M,,0000*5F
$GPGLL,4926.7621,N,01100.4525,E,083933.000,A,A*56
$GPGSA,A,3,21,18,27,19,15,30,16,04,07,22,,,1.7,1.0,1.3*33
$GPRMC,083933.000,A,4926.7621,N,01100.4525,E,0.04,54.67,281114,,,A*5A
!AIVDO,1,1,,,B>pf?VP000<V=nW4dBDR;whTkP06,0*21
$GPVTG,54.67,T,,M,0.04,N,0.1,K,A*38
$GPGGA,083934.000,4926.7621,N,01100.4524,E,1,09,1.1,341.1,M,47.8,M,,0000*50
$GPGLL,4926.7621,N,01100.4524,E,083934.000,A,A*50
$GPGSA,A,3,21,18,27,19,15,30,16,04,22,,,,1.8,1.1,1.4*3D
$GPRMC,083934.000,A,4926.7621,N,01100.4524,E,0.05,44.91,281114,,,A*55
!AIVDO,1,1,,,B>pf?VP000<V=n74dBDL7wi4kP06,0*32
$GPVTG,44.91,T,,M,0.05,N,0.1,K,A*31
$GPGGA,083935.000,4926.7620,N,01100.4523,E,1,09,1.1,341.1,M,47.8,M,,0000*57
$GPGLL,4926.7620,N,01100.4523,E,083935.000,A,A*57
$GPGSA,A,3,21,18,27,19,15,30,16,04,22,,,,1.8,1.1,1.4*3D
$GPRMC,083935.000,A,4926.7620,N,01100.4523,E,0.05,31.08,281114,,,A*50
!AIVDO,1,1,,,B>pf?VP000<V=mW4dB@CKwiTkP06,0*46
$GPVTG,31.08,T,,M,0.05,N,0.1,K,A*33
!AIVDM,1,1,,B,1;U=g`?P010jHdLLBh4f4?wtAU2L,0*42
$GPGGA,083936.000,4926.7620,N,01100.4523,E,1,09,1.1,341.1,M,47.8,M,,0000*54
$GPGLL,4926.7620,N,01100.4523,E,083936.000,A,A*54
$GPGSA,A,3,21,18,27,19,15,30,16,04,22,,,,1.8,1.1,1.4*3D
$GPGSV,3,1,12,27,87,212,34,22,62,135,39,19,57,299,34,18,46,066,44*79
$GPGSV,3,2,12,16,35,197,29,04,26,257,34,21,25,073,38,11,12,270,*74
$GPGSV,3,3,12,15,12,039,46,30,07,318,33,07,06,288,23,14,01,135,29*71
$GPRMC,083936.000,A,4926.7620,N,01100.4523,E,0.06,35.55,281114,,,A*5C
!AIVDO,1,1,,,B>pf?VP000<V=mW4dB@F?wj4kP06,0*54
$GPVTG,35.55,T,,M,0.06,N,0.1,K,A*3C
$GPGGA,083937.000,4926.7620,N,01100.4522,E,1,10,1.0,341.1,M,47.8,M,,0000*5D
$GPGLL,4926.7620,N,01100.4522,E,083937.000,A,A*54
$GPGSA,A,3,21,18,27,19,15,30,16,04,07,22,,,1.7,1.0,1.3*33
$GPRMC,083937.000,A,4926.7620,N,01100.4522,E,0.07,52.08,281114,,,A*54
!AIVDO,1,1,,,B>pf?VP000<V=m74dB@PSwjTkP06,0*2E
$GPVTG,52.08,T,,M,0.07,N,0.1,K,A*34
!AIVDM,1,1,,A,>;U=g`0984<dEB1@4m0E800,2*71
$GPGGA,083938.000,4926.7620,N,01100.4521,E,1,10,1.0,341.2,M,47.8,M,,0000*52
$GPGLL,4926.7620,N,01100.4521,E,083938.000,A,A*58
$GPGSA,A,3,21,18,27,19,15,30,16,04,07,22,,,1.7,1.0,1.3*33
$GPRMC,083938.000,A,4926.7620,N,01100.4521,E,0.10,55.07,281114,,,A*56
!AIVDO,1,1,,,B>pf?VP00@<V=lW4dB@RKwk4kP06,0*44
$GPVTG,55.07,T,,M,0.10,N,0.2,K,A*39
$GPGGA,083939.000,4926.7620,N,01100.4520,E,1,10,1.0,341.2,M,47.8,M,,0000*52
$GPGLL,4926.7620,N,01100.4520,E,083939.000,A,A*58
$GPGSA,A,3,21,18,27,19,15,30,16,04,07,22,,,1.7,1.0,1.3*33
$GPRMC,083939.000,A,4926.7620,N,01100.4520,E,0.07,18.11,281114,,,A*5E
!AIVDO,1,1,,,B>pf?VP000<V=l74dB@;GwkTkP06,0*51
$GPVTG,18.11,T,,M,0.07,N,0.1,K,A*32
!AIVDM,2,1,0,B,5;U=g`400000rp6p000@UHE:0PDq9T000000000N6pd7440Ht04nC5000000,0*66
!AIVDM,2,2,0,B,0000000000<,2*2B
$GPGGA,083940.000,4926.7620,N,01100.4519,E,1,10,1.0,341.3,M,47.8,M,,0000*57
$GPGLL,4926.7620,N,01100.4519,E,083940.000,A,A*5C
$GPGSA,A,3,21,18,27,19,15,30,16,04,07,22,,,1.7,1.0,1.3*33
$GPRMC,083940.000,A,4926.7620,N,01100.4519,E,0.10,337.18,281114,,,A*6B
!AIVDO,1,1,,,B>pf?VP00@<V=kW4dBCBgwl4kP06,0*7B
$GPVTG,337.18,T,,M,0.10,N,0.2,K,A*00
$GPGGA,083941.000,4926.7620,N,01100.4518,E,1,10,1.0,341.3,M,47.8,M,,0000*57
$GPGLL,4926.7620,N,01100.4518,E,083941.000,A,A*5C
$GPGSA,A,3,21,18,27,19,15,30,16,04,07,22,,,1.7,1.0,1.3*33
$GPGSV,3,1,12,27,87,212,31,22,62,135,39,19,57,299,34,18,46,066,44*7C
$GPGSV,3,2,12,16,35,197,24,04,26,257,34,21,25,073,38,11,12,270,*79
$GPGSV,3,3,12,15,12,039,46,30,07,318,33,07,06,288,22,14,01,135,30*78
!AIVDM,1,1,,A,1;U=g`?P010jHdjLBh4>4?wtAU2L,0*3F
$GPRMC,083941.000,A,4926.7620,N,01100.4518,E,0.06,86.44,281114,,,A*5C
!AIVDO,1,1,,,B>pf?VP000<V=k74dB@n3wlTkP06,0*70
$GPVTG,86.44,T,,M,0.06,N,0.1,K,A*34
$GPGGA,083942.000,4926.7619,N,01100.4518,E,1,10,1.0,341.4,M,47.8,M,,0000*59
$GPGLL,4926.7619,N,01100.4518,E,083942.000,A,A*55
$GPGSA,A,3,21,18,27,19,15,30,16,04,07,22,,,1.7,1.0,1.3*33
$GPRMC,083942.000,A,4926.7619,N,01100.4518,E,0.08,80.97,281114,,,A*53
!AIVDO,1,1,,,B>pf?VP000<V=k74dB<jWwm4kP06,0*0D
$GPVTG,80.97,T,,M,0.08,N,0.1,K,A*32
$GPGGA,083943.000,4926.7619,N,01100.4517,E,1,10,1.0,341.4,M,47.8,M,,0000*57
$GPGLL,4926.7619,N,01100.4517,E,083943.000,A,A*5B
$GPGSA,A,3,21,18,27,19,15,30,16,04,07,22,,,1.7,1.0,1.3*33
$GPRMC,083943.000,A,4926.7619,N,01100.4517,E,0.00,184.02,281114,,,A*6C
!AIVDO,1,1,,,B>pf?VP000<V=jW4dB=k3wmTkP06,0*68
$GPVTG,184.02,T,,M,0.00,N,0.0,K,A*02
!AIVDM,1,1,,B,1;U=g`?P000jHdpLBh4f4?wtAU2L,0*7F
$GPGGA,083944.000,4926.7619,N,01100.4516,E,1,10,1.0,341.5,M,47.8,M,,0000*50
$GPGLL,4926.7619,N,01100.4516,E,083944.000,A,A*5D
$GPGSA,A,3,21,18,27,19,15,30,16,04,07,22,,,1.7,1.0,1.3*33
$GPRMC,083944.000,A,4926.7619,N,01100.4516,E,0.09,15.11,281114,,,A*58
!AIVDO,1,1,,,B>pf?VP000<V=j74dB<9Own4kP06,0*44
$GPVTG,15.11,T,,M,0.09,N,0.2,K,A*32
$GPGGA,083945.000,4926.7620,N,01100.4515,E,1,10,1.0,341.7,M,47.8,M,,0000*5A
$GPGLL,4926.7620,N,01100.4515,E,083945.000,A,A*55
$GPGSA,A,3,21,18,27,19,15,30,16,04,07,22,,,1.7,1.0,1.3*33
$GPRMC,083945.000,A,4926.7620,N,01100.4515,E,0.15,6.09,281114,,,A*66
!AIVDO,1,1,,,B>pf?VP00@<V=iW4dB@3kwnTkP06,0*65
$GPVTG,6.09,T,,M,0.15,N,0.3,K,A*05
!AIVDM,1,1,,A,1;U=g`?P020jHdrLBh5N4?wtAU2L,0*55
$GPGGA,083946.000,4926.7620,N,01100.4514,E,1,10,1.0,341.9,M,47.8,M,,0000*56
$GPGLL,4926.7620,N,01100.4514,E,083946.000,A,A*57
$GPGSA,A,3,21,18,27,19,15,30,16,04,07,22,,,1.7,1.0,1.3*33
$GPGSV,3,1,12,27,87,206,31,22,62,135,38,19,57,299,35,18,46,066,43*7E
$GPGSV,3,2,12,16,35,197,26,04,26,257,33,21,25,073,37,11,13,270,*72
$GPGSV,3,3,12,15,11,039,45,30,07,318,34,07,06,288,28,14,01,135,31*74
$GPRMC,083946.000,A,4926.7620,N,01100.4514,E,0.13,359.95,281114,,,A*6E
!AIVDO,1,1,,,B>pf?VP00@<V=i74dBCPwwo4kP06,0*18
$GPVTG,359.95,T,,M,0.13,N,0.2,K,A*0E
$GPGGA,083947.000,4926.7621,N,01100.4513,E,1,10,1.0,342.1,M,47.8,M,,0000*5A
$GPGLL,4926.7621,N,01100.4513,E,083947.000,A,A*50
$GPGSA,A,3,21,18,27,19,15,30,16,04,07,22,,,1.7,1.0,1.3*33
$GPRMC,083947.000,A,4926.7621,N,01100.4513,E,0.10,4.99,281114,,,A*6D
!AIVDO,1,1,,,B>pf?VP00@<V=hW4dBD37woTkP06,0*3D
$GPVTG,4.99,T,,M,0.10,N,0.2,K,A*0A
$GPGGA,083948.000,4926.7621,N,01100.4512,E,1,10,1.0,342.3,M,47.8,M,,0000*56
$GPGLL,4926.7621,N,01100.4512,E,083948.000,A,A*5E
$GPGSA,A,3,21,18,27,19,15,30,16,04,07,22,,,1.7,1.0,1.3*33
$GPRMC,083948.000,A,4926.7621,N,01100.4512,E,0.10,4.90,281114,,,A*6A
!AIVDO,1,1,,,B>pf?VP00@<V=h74dBD37wp4kP06,0*22
$GPVTG,4.90,T,,M,0.10,N,0.2,K,A*03
$GPGGA,083949.000,4926.7621,N,01100.4511,E,1,10,1.0,342.5,M,47.8,M,,0000*52
$GPGLL,4926.7621,N,01100.4511,E,083949.000,A,A*5C
$GPGSA,A,3,21,18,27,19,15,30,16,04,07,22,,,1.7,1.0,1.3*33
$GPRMC,083949.000,A,4926.7621,N,01100.4511,E,0.10,358.39,281114,,,A*61
!AIVDO,1,1,,,B>pf?VP00@<V=gW4dBGOwwpTkP06,0*12
$GPVTG,358.39,T,,M,0.10,N,0.2,K,A*0A
$GPGGA,083950.000,4926.7622,N,01100.4510,E,1,09,1.1,342.8,M,47.8,M,,0000*5C
$GPGLL,4926.7622,N,01100.4510,E,083950.000,A,A*56
$GPGSA,A,3,21,18,27,19,15,30,16,04,22,,,,1.8,1.1,1.4*3D
$GPRMC,083950.000,A,4926.7622,N,01100.4510,E,0.10,3.77,281114,,,A*6C
!AIVDO,1,1,,,B>pf?VP00@<V=g74dBH2Gwq4kP06,0*51
$GPVTG,3.77,T,,M,0.10,N,0.2,K,A*0D
$GPGGA,083951.000,4926.7623,N,01100.4509,E,1,09,1.1,343.1,M,47.8,M,,0000*5C
$GPGLL,4926.7623,N,01100.4509,E,083951.000,A,A*5E
$GPGSA,A,3,21,18,27,19,15,30,16,04,22,,,,1.8,1.1,1.4*3D
$GPGSV,3,1,12,27,87,206,32,22,62,135,38,19,57,299,34,18,46,066,43*7C
$GPGSV,3,2,12,16,35,197,32,04,26,257,33,21,25,073,37,11,13,270,*77
$GPGSV,3,3,12,15,11,039,44,30,07,318,34,07,06,288,22,14,01,135,32*7C
$GPRMC,083951.000,A,4926.7623,N,01100.4509,E,0.12,27.12,281114,,,A*53
!AIVDO,1,1,,,B>pf?VP00@<V=fW4dBL@wwqTkP06,0*16
$GPVTG,27.12,T,,M,0.12,N,0.2,K,A*3A
$GPGGA,083952.000,4926.7623,N,01100.4508,E,1,10,1.0,343.4,M,47.8,M,,0000*52
$GPGLL,4926.7623,N,01100.4508,E,083952.000,A,A*5C
$GPGSA,A,3,21,18,27,19,15,30,16,04,07,22,,,1.7,1.0,1.3*33
$GPRMC,083952.000,A,4926.7623,N,01100.4508,E,0.13,15.79,281114,,,A*5C
!AIVDO,1,1,,,B>pf?VP00@<V=f74dBL9owr4kP06,0*74
$GPVTG,15.79,T,,M,0.13,N,0.2,K,A*37
$GPGGA,083953.000,4926.7624,N,01100.4507,E,1,09,1.1,343.8,M,47.8,M,,0000*5E
$GPGLL,4926.7624,N,01100.4507,E,083953.000,A,A*55
$GPGSA,A,3,21,18,27,19,15,30,16,04,22,,,,1.8,1.1,1.4*3D
$GPRMC,083953.000,A,4926.7624,N,01100.4507,E,0.14,351.94,281114,,,A*62
!AIVDO,1,1,,,B>pf?VP00@<V=eW4dBSKwwrTkP06,0*02
$GPVTG,351.94,T,,M,0.14,N,0.3,K,A*01
$GPGGA,083954.000,4926.7625,N,01100.4506,E,1,09,1.1,344.2,M,47.8,M,,0000*54
$GPGLL,4926.7625,N,01100.4506,E,083954.000,A,A*52
$GPGSA,A,3,21,18,27,19,15,30,16,04,22,,,,1.8,1.1,1.4*3D
$GPRMC,083954.000,A,4926.7625,N,01100.4506,E,0.15,359.28,281114,,,A*6B
!AIVDO,1,1,,,B>pf?VP00@<V=e74dBWPSws4kP06,0*38
$GPVTG,359.28,T,,M,0.15,N,0.3,K,A*0F
$GPGGA,083955.000,4926.7626,N,01100.4504,E,1,09,1.1,344.6,M,47.8,M,,0000*50
$GPGLL,4926.7626,N,01100.4504,E,083955.000,A,A*52
$GPGSA,A,3,21,18,27,19,15,30,16,04,22,,,,1.8,1.1,1.4*3D
$GPRMC,083955.000,A,4926.7626,N,01100.4504,E,0.14,356.57,281114,,,A*6D
!AIVDO,1,1,,,B>pf?VP00@<V=d74dBcNowsTkP06,0*4F
$GPVTG,356.57,T,,M,0.14,N,0.3,K,A*09
$GPGGA,083956.000,4926.7627,N,01100.4503,E,1,09,1.1,345.0,M,47.8,M,,0000*52
$GPGLL,4926.7627,N,01100.4503,E,083956.000,A,A*57
$GPGSA,A,3,21,18,27,19,15,30,16,04,22,,,,1.8,1.1,1.4*3D
$GPGSV,3,1,12,27,87,206,38,22,62,135,38,19,57,299,34,18,46,066,43*76
$GPGSV,3,2,12,16,35,197,33,04,26,257,32,21,25,073,36,11,13,270,*76
$GPGSV,3,3,12,15,11,039,43,30,07,318,34,07,06,288,27,14,01,135,34*78
$GPRMC,083956.000,A,4926.7627,N,01100.4503,E,0.15,357.32,281114,,,A*6B
!AIVDO,1,1,,,B>pf?VP00@<V=cW4dBgOGwt4kP06,0*62
$GPVTG,357.32,T,,M,0.15,N,0.3,K,A*0A
$GPGGA,083957.000,4926.7628,N,01100.4502,E,1,10,1.0,345.4,M,47.8,M,,0000*50
$GPGLL,4926.7628,N,01100.4502,E,083957.000,A,A*58
$GPGSA,A,3,21,18,27,19,15,30,16,04,07,22,,,1.7,1.0,1.3*33
$GPRMC,083957.000,A,4926.7628,N,01100.4502,E,0.14,359.88,281114,,,A*6A
!AIVDO,1,1,,,B>pf?VP00@<V=c74dBkPswtTkP06,0*45
$GPVTG,359.88,T,,M,0.14,N,0.3,K,A*04
$GPGGA,083958.000,4926.7629,N,01100.4501,E,1,10,1.0,345.7,M,47.8,M,,0000*5E
$GPGLL,4926.7629,N,01100.4501,E,083958.000,A,A*55
$GPGSA,A,3,21,18,27,19,15,30,16,04,07,22,,,1.7,1.0,1.3*33
$GPRMC,083958.000,A,4926.7629,N,01100.4501,E,0.12,4.81,281114,,,A*63
!AIVDO,1,1,,,B>pf?VP00@<V=bW4dBl33wu4kP06,0*61
$GPVTG,4.81,T,,M,0.12,N,0.2,K,A*01
$GPGGA,083959.000,4926.7630,N,01100.4500,E,1,10,1.0,346.1,M,47.8,M,,0000*53
$GPGLL,4926.7630,N,01100.4500,E,083959.000,A,A*5D
$GPGSA,A,3,21,18,27,19,15,30,16,04,07,22,,,1.7,1.0,1.3*33
$GPRMC,083959.000,A,4926.7630,N,01100.4500,E,0.12,354.86,281114,,,A*6A
!AIVDO,1,1,,,B>pf?VP00@<V=b74dBsMkwuTkP06,0*58
$GPVTG,354.86,T,,M,0.12,N,0.2,K,A*00
$GPGGA,084000.000,4926.7630,N,01100.4499,E,1,10,1.0,346.5,M,47.8,M,,0000*54
$GPGLL,4926.7630,N,01100.4499,E,084000.000,A,A*5E
$GPGSA,A,3,21,18,27,19,15,30,16,04,07,22,,,1.7,1.0,1.3*33
$GPRMC,084000.000,A,4926.7630,N,01100.4499,E,0.10,351.52,281114,,,A*67
!AIVDO,1,1,,,B>pf?VP00@<V=aW4dBsKgwP4kP06,0*74
$GPVTG,351.52,T,,M,0.10,N,0.2,K,A*0E
$GPGGA,084001.000,4926.7631,N,01100.4498,E,1,10,1.0,346.8,M,47.8,M,,0000*58
$GPGLL,4926.7631,N,01100.4498,E,084001.000,A,A*5F
$GPGSA,A,3,21,18,27,19,15,30,16,04,07,22,,,1.7,1.0,1.3*33
$GPGSV,3,1,12,27,87,206,37,22,62,135,38,19,57,299,29,18,46,066,42*74
$GPGSV,3,2,12,16,35,197,34,04,26,257,26,21,25,073,34,11,13,270,*76
$GPGSV,3,3,12,15,11,039,42,30,07,318,34,07,06,288,26,14,01,135,35*79
$GPRMC,084001.000,A,4926.7631,N,01100.4498,E,0.09,355.33,281114,,,A*6D
!AIVDO,1,1,,,B>pf?VP000<V=a74dBwN7wPTkP06,0*55
$GPVTG,355.33,T,,M,0.09,N,0.2,K,A*05
$GPGGA,084002.000,4926.7632,N,01100.4497,E,1,10,1.0,347.1,M,47.8,M,,0000*5F
$GPGLL,4926.7632,N,01100.4497,E,084002.000,A,A*50
$GPGSA,A,3,21,18,27,19,15,30,16,04,07,22,,,1.7,1.0,1.3*33
$GPRMC,084002.000,A,4926.7632,N,01100.4497,E,0.09,340.28,281114,,,A*6C
!AIVDO,1,1,,,B>pf?VP000<V=`W4dC3DcwQ4kP06,0*4E
$GPVTG,340.28,T,,M,0.09,N,0.2,K,A*0B
$GPGGA,084003.000,4926.7633,N,01100.4496,E,1,09,1.1,347.4,M,47.8,M,,0000*52
$GPGLL,4926.7633,N,01100.4496,E,084003.000,A,A*51
$GPGSA,A,3,21,18,27,19,15,30,16,07,22,,,,1.7,1.1,1.3*36
$GPRMC,084003.000,A,4926.7633,N,01100.4496,E,0.08,1.49,281114,,,A*6D
!AIVDO,1,1,,,B>pf?VP000<V=`74dC40swQTkP06,0*2D
$GPVTG,1.49,T,,M,0.08,N,0.1,K,A*08
!AIVDM,1,1,,B,1>O:wDNP000jHerLBh>v4?wt1h2N,0*74
$GPGGA,084004.000,4926.7633,N,01100.4495,E,1,10,1.0,347.7,M,47.8,M,,0000*5C
$GPGLL,4926.7633,N,01100.4495,E,084004.000,A,A*55
$GPGSA,A,3,21,18,27,19,15,30,16,07,22,11,,,1.6,1.0,1.3*36
$GPRMC,084004.000,A,4926.7633,N,01100.4495,E,0.08,322.93,281114,,,A*6C
!AIVDO,1,1,,,B>pf?VP000<V=WW4dC79owR4kP06,0*0F
$GPVTG,322.93,T,,M,0.08,N,0.2,K,A*0E
$GPGGA,084005.000,4926.7634,N,01100.4494,E,1,11,1.0,347.9,M,47.8,M,,0000*54
$GPGLL,4926.7634,N,01100.4494,E,084005.000,A,A*52
$GPGSA,A,3,21,18,27,19,15,30,16,04,07,22,11,,1.6,1.0,1.3*32
$GPRMC,084005.000,A,4926.7634,N,01100.4494,E,0.05,11.75,281114,,,A*5D
!AIVDO,1,1,,,B>pf?VP000<V=W74dC87GwRTkP06,0*26
$GPVTG,11.75,T,,M,0.05,N,0.1,K,A*3B
$GPGGA,084006.000,4926.7634,N,01100.4494,E,1,10,1.0,348.1,M,47.8,M,,0000*51
$GPGLL,4926.7634,N,01100.4494,E,084006.000,A,A*51
$GPGSA,A,3,21,18,27,19,15,30,16,07,22,11,,,1.6,1.0,1.3*36
$GPGSV,3,1,12,27,87,206,37,22,62,135,38,19,57,299,26,18,46,066,41*78
$GPGSV,3,2,12,16,35,197,34,04,26,257,25,21,25,073,33,11,13,270,18*7B
$GPGSV,3,3,12,15,11,039,41,30,07,318,33,07,06,288,26,14,01,135,35*7D
$GPRMC,084006.000,A,4926.7634,N,01100.4494,E,0.05,54.01,281114,,,A*5C
!AIVDO,1,1,,,B>pf?VP000<V=W74dC8QkwS4kP06,0*0D
$GPVTG,54.01,T,,M,0.05,N,0.1,K,A*39
$GPGGA,084007.000,4926.7634,N,01100.4493,E,1,10,1.0,348.3,M,47.8,M,,0000*55
$GPGLL,4926.7634,N,01100.4493,E,084007.000,A,A*57
$GPGSA,A,3,21,18,27,19,15,30,16,07,22,11,,,1.6,1.0,1.3*36
$GPRMC,084007.000,A,4926.7634,N,01100.4493,E,0.03,17.68,281114,,,A*54
!AIVDO,1,1,,,B>pf?VP000<V=VW4dC8;3wSTkP06,0*3E
$GPVTG,17.68,T,,M,0.03,N,0.1,K,A*37
!AIVDM,1,1,,B,1>O:wDNP000jHerLBh?N4?wt1h4l,0*69
$GPGGA,084008.000,4926.7635,N,01100.4492,E,1,09,1.1,348.5,M,47.8,M,,0000*55
$GPGLL,4926.7635,N,01100.4492,E,084008.000,A,A*58
$GPGSA,A,3,21,18,27,19,15,30,16,07,22,,,,1.7,1.1,1.3*36
$GPRMC,084008.000,A,4926.7635,N,01100.4492,E,0.08,8.36,281114,,,A*65
!AIVDO,1,1,,,B>pf?VP000<V=V74dC<5?wT4kP06,0*3F
$GPVTG,8.36,T,,M,0.08,N,0.1,K,A*09
$GPGGA,084009.000,4926.7635,N,01100.4492,E,1,11,1.0,348.6,M,47.8,M,,0000*5F
$GPGLL,4926.7635,N,01100.4492,E,084009.000,A,A*59
$GPGSA,A,3,21,18,27,19,15,30,16,04,07,22,11,,1.6,1.0,1.3*32
$GPRMC,084009.000,A,4926.7635,N,01100.4492,E,0.09,71.18,281114,,,A*57
!AIVDO,1,1,,,B>pf?VP000<V=V74dC<dOwTTkP06,0*7E
$GPVTG,71.18,T,,M,0.09,N,0.2,K,A*39
$GPGGA,084010.000,4926.7635,N,01100.4491,E,1,11,1.0,348.8,M,47.8,M,,0000*5A
$GPGLL,4926.7635,N,01100.4491,E,084010.000,A,A*52
$GPGSA,A,3,21,18,27,19,15,30,16,04,07,22,11,,1.6,1.0,1.3*32
$GPRMC,084010.000,A,4926.7635,N,01100.4491,E,0.04,326.24,281114,,,A*6F
!AIVDO,1,1,,,B>pf?VP000<V=UW4dC?;swU4kP06,0*1C
$GPVTG,326.24,T,,M,0.04,N,0.1,K,A*09
$GPGGA,084011.000,4926.7635,N,01100.4490,E,1,11,1.0,348.8,M,47.8,M,,0000*5A
$GPGLL,4926.7635,N,01100.4490,E,084011.000,A,A*52
$GPGSA,A,3,21,18,27,19,15,30,16,04,07,22,11,,1.6,1.0,1.3*32
$GPGSV,3,1,12,27,87,206,36,22,62,135,38,19,57,299,25,18,46,066,40*7B
$GPGSV,3,2,12,16,35,197,35,04,26,257,24,21,25,073,33,11,13,270,19*7A
$GPGSV,3,3,12,15,11,039,41,30,07,318,32,07,06,288,26,14,01,135,36*7F
$GPRMC,084011.000,A,4926.7635,N,01100.4490,E,0.10,263.78,281114,,,A*63
!AIVDO,1,1,,,B>pf?VP00@<V=U74dC>TowUTkP06,0*1E
$GPVTG,263.78,T,,M,0.10,N,0.2,K,A*06
!AIVDM,1,1,,B,1>O:wDNP000jHevLBh?f4?wt1h7:,0*10
$GPGGA,084012.000,4926.7634,N,01100.4489,E,1,11,1.0,348.8,M,47.8,M,,0000*50
$GPGLL,4926.7634,N,01100.4489,E,084012.000,A,A*58
$GPGSA,A,3,21,18,27,19,15,30,16,04,07,22,11,,1.6,1.0,1.3*32
$GPRMC,084012.000,A,4926.7634,N,01100.4489,E,0.02,154.83,281114,,,A*69
!AIVDO,1,1,,,B>pf?VP000<V=TW4dC9PkwV4kP06,0*6B
$GPVTG,154.83,T,,M,0.02,N,0.0,K,A*04
$GPGGA,084013.000,4926.7634,N,01100.4488,E,1,11,1.0,348.8,M,47.8,M,,0000*50
$GPGLL,4926.7634,N,01100.4488,E,084013.000,A,A*58
$GPGSA,A,3,21,18,27,19,15,30,16,04,07,22,11,,1.6,1.0,1.3*32
$GPRMC,084013.000,A,4926.7634,N,01100.4488,E,0.12,244.08,281114,,,A*69
!AIVDO,1,1,,,B>pf?VP00@<V=T74dC:HSwVTkP06,0*38
$GPVTG,244.08,T,,M,0.12,N,0.2,K,A*06
$GPGGA,084014.000,4926.7634,N,01100.4487,E,1,11,1.0,348.7,M,47.8,M,,0000*57
$GPGLL,4926.7634,N,01100.4487,E,084014.000,A,A*50
$GPGSA,A,3,21,18,27,19,15,30,16,04,07,22,11,,1.6,1.0,1.3*32
$GPRMC,084014.000,A,4926.7634,N,01100.4487,E,0.07,138.34,281114,,,A*62
!AIVDO,1,1,,,B>pf?VP000<V=SW4dC9FOwW4kP06,0*5F
$GPVTG,138.34,T,,M,0.07,N,0.1,K,A*06
$GPGGA,084015.000,4926.7633,N,01100.4487,E,1,11,1.0,348.7,M,47.8,M,,0000*51
$GPGLL,4926.7633,N,01100.4487,E,084015.000,A,A*56
$GPGSA,A,3,21,18,27,19,15,30,16,04,07,22,11,,1.6,1.0,1.3*32
$GPRMC,084015.000,A,4926.7633,N,01100.4487,E,0.08,106.00,281114,,,A*61
!AIVDO,1,1,,,B>pf?VP000<V=SW4dC52CwWTkP06,0*4B
$GPVTG,106.00,T,,M,0.08,N,0.1,K,A*03
$GPGGA,084016.000,4926.7633,N,01100.4486,E,1,11,1.0,348.6,M,47.8,M,,0000*52
$GPGLL,4926.7633,N,01100.4486,E,084016.000,A,A*54
$GPGSA,A,3,21,18,27,19,15,30,16,04,07,22,11,,1.6,1.0,1.3*32
!AIVDM,3,1,1,B,8;U=g`25Nh0B4A4H4A4BRrp`HinBRrq8HinRRrq`Hio2Rrr8HioBRrrpHip2,0*00
!AIVDM,3,2,1,B,RrsHHQpRRrspHQq2RrtHHQqRRrt`HQr2Rru8HArRRruHHAsBRru`HAt2Rrup,0*39
!AIVDM,3,3,1,B,HAtjRrv8H1uBRrvHH1uh,0*59
$GPGSV,3,1,12,27,87,200,36,22,62,134,38,19,57,299,26,18,46,066,39*71
!AIVDM,3,1,2,A,8;U=g`25Nh0RRrv`H1vBRrvpH1w2Rs08H1wRRs0HH202Rs0`H20jRs18HB12,0*7C
!AIVDM,3,2,2,A,Rs1HHB1RRs1`HR1jRs1pHR22Rs2HI22RRs2pIB2RRs=HI22RRs=pHj2BRs>H,0*01
!AIVDM,3,3,2,A,Hj22S27`Hj2BS288Hj2h,0*4B
$GPGSV,3,2,12,16,35,197,35,04,26,257,23,21,24,073,32,11,13,270,20*77
$GPGSV,3,3,12,15,11,039,40,30,07,318,32,07,06,288,27,14,02,135,35*7F
!AIVDM,3,1,3,B,8;U=g`25Nh0jS28HHR32S28pHB3BS2:`H23RS2:pH242S2;8Gj4BS2;HGj4j,0*74
!AIVDM,3,2,3,B,S2;`GR52S2;pGB5BS2<`G25RS438GB5RS44pGR52S458Gj4jS45`H242S45p,0*02
!AIVDM,3,3,3,B,H23jS468HB3BS46`HR30,0*0F
$GPRMC,084016.000,A,4926.7633,N,01100.4486,E,0.06,199.91,281114,,,A*63
!AIVDO,1,1,,,B>pf?VP000<V=S74dC5tww`4kP06,0*0E
$GPVTG,199.91,T,,M,0.06,N,0.1,K,A*03
!AIVDM,3,1,4,A,8;U=g`25Nh12S478Hj2jS47HI22RS47pIB3BS48HIR32S48pIj32S49`Ij2R,0*68
!AIVDM,3,2,4,A,S4=HIB2RS4=pI22RS4>HHj2BS4eHHj22S4qpIB1jS4s`I222S4upHj2RS50p,0*4F
!AIVDM,3,3,4,A,HR22S588Hj22S5CpHB1h,0*4A
!AIVDM,3,1,5,B,8;U=g`25Nh1BS5DpHj22TAMa;QJ2TANI;AJ2TANa:iJ2TANq:QJBTAPI:1JR,0*20
!AIVDM,3,2,5,B,TAQ99iJBTAQq9QJBTBVa9QJRTBha9AJBTD3I9iJRTD3q:AJRTD49:QJBTD4I,0*5F
!AIVDM,3,3,5,B,:iJ2TD4a;AIjTD4q;QIh,0*39
!AIVDM,3,1,6,A,8;U=g`25Nh1RTD5I;iJBTINq;QIjTIP9;AIjTIPI;1J2TIPa:QJ2TIPq:AJR,0*5A
!AIVDM,3,2,6,A,TIQI:1JRTIQq9iJjTISa9QJBTKlq9iJjTKna:1JRTKnq:AJBTKnq:iJ2TKo9,0*65
!AIVDM,3,3,6,A,;1J2TKoI;QIjTKoq;iJ@,0*4B
$GPGGA,084017.000,4926.7632,N,01100.4486,E,1,11,1.0,348.5,M,47.8,M,,0000*51
!AIVDM,3,1,7,A,8;U=g`25Nh22TS:a;QJBTS;9;iJBTaNq;QJBTaPa;AJRTaR9:iJBTaRa:QJB,0*51
!AIVDM,3,2,7,A,TaS9:AJRTaSa:1JBTaT99iJBTaU99QJBTcrI9iJRTcs9:1JRTcsI:AJBTcsa,0*60
!AIVDM,3,3,7,A,:iJ2Tcsq;1J2Tct9;AIh,0*5C
$GPGLL,4926.7632,N,01100.4486,E,084017.000,A,A*54
$GPGSA,A,3,21,18,27,19,15,30,16,04,07,22,11,,1.6,1.0,1.3*32
!AIVDM,3,1,8,B,8;U=g`25Nh2BTcta;iJ2TrDI;iJRU1U9;QJ2U1Uq;1J2U1V9:iJ2U1VI:AJB,0*4B
!AIVDM,3,2,8,B,U1Va:1JRU1W9:1JBU1Wa9QJRU1`I9AJBU3s99iJRU3sq:AJRU3t9:QJBU3tI,0*3A
!AIVDM,3,3,8,B,:iJ2U3ta;AIjU3tq;QIh,0*34
$GPRMC,084017.000,A,4926.7632,N,01100.4486,E,0.12,95.99,281114,,,A*53
!AIVDO,1,1,,,B>pf?VP00@<V=S74dC0sww`TkP06,0*1C
$GPVTG,95.99,T,,M,0.12,N,0.2,K,A*30
!AIVDM,3,1,9,A,8;U=g`25Nh2RU3ua;QJBU9Ja;iJBU9M9<1J2U9Na;QIjU9Nq;AIjU9P9:iJ2,0*7E
!AIVDM,3,2,9,A,U9PI:QJBU9Pa:AJRU9Qa9iJBU9RI9QJBa1Nq;iJRa1Pq<1JRa1Rq;iJ2a1Sa,0*5F
!AIVDM,3,3,9,A,;AIja1Sq;1J2a1T9:QJ0,0*6A
!AIVDM,3,1,0,B,8;U=g`25Nh2ja1TI:AJRa1U9:1JBa1Ua9QJRa1VI9QJBa3sq9iJRa3v9:1JR,0*3E
!AIVDM,3,2,0,B,a3va:AJRa3vq:QJBa40I:iJ2a419;AJBa41a;QJBa429;iJBa9PI;QJBa9Q9,0*5C
!AIVDM,3,3,0,B,;AJRa9Sa:iJBa9T9:AJ@,0*02
!AIVDM,3,1,1,A,8;U=g`25Nh32a9Ta:1JRa9Ua9iJBa9VI9QJBa;t99iJRa;ta:1JRa;tq:QJB,0*0B
!AIVDM,3,2,1,A,a;u9:iJ2a;uI;AIja;ua;QIja;v9;iJBaAN9;QJBaANq;AJRaARI:iJBaARq,0*77
!AIVDM,3,3,1,A,:AJRaASa:1JRaATI9iJ@,0*12
!AIVDM,3,1,2,B,8;U=g`25Nh3BaAU99QJBaCqa9iJRaCr9:1JRaCrI:QJ2aCra;1J2aCrq;AIj,0*34
!AIVDM,3,2,2,B,aCs9;QIjaCsa;iJBaaN9<1JBaaQq;QJ2aaRa;AIjaaRq:iJ2aaS9:QJBaaSI,0*6C
!AIVDM,3,3,2,B,:1JRaaU99iJBaaV99QJ@,0*3D
!AIVDM,3,1,3,A,8;U=g`25Nh3Raahq91JBab;I9AJBacsq9QJRactI9iJjactq:AJBacu9:iJ2,0*0D
!AIVDM,3,2,3,A,acuI;1J2acua;QIjacv9;iJBaiQI<1JRaiS9;iJ2aiSa;QIjaiSq;AIjaiT9,0*38
!AIVDM,3,3,3,A,;1J2aiTI:QJ2aiTa:AJP,0*3D
!AIVDM,3,1,4,B,8;U=g`25Nh3jaiWI:1JBaiWq9iJBai`q9QJBb2aq9AJ2b2ba91IRb2dI9AJ2,0*60
!AIVDM,3,2,4,B,c3sI9QJRc3sq9iJRc3ta:AJBc3tq:iJ2c3u9;1J2c3uI;QIjc3uq;iJ2c:79,0*3A
!AIVDM,3,3,4,B,;iJRc:7a;iK2c:89;AK@,0*56
!AIVDM,3,1,5,A,8;U=g`25Nh42c:8I;1KRc:8a:iKjc:99:AKjc::9:1LBc:HI:AKjc:Hq:iKR,0*67
!AIVDM,3,2,5,A,c:I9;1KRc:II;AKBc:Ia;QK2c:J9;iJRcL=a;iJRcQca<1JBcQf9;iJBcQfa,0*0E
!AIVDM,3,3,5,A,;QJ2cQh9;AIjcQhI:iJ0,0*01
$GPGGA,084018.000,4926.7632,N,01100.4486,E,1,11,1.0,348.4,M,47.8,M,,0000*5F
$GPGLL,4926.7632,N,01100.4486,E,084018.000,A,A*5B
!AIVDM,3,1,6,B,8;U=g`25Nh4B8R8`8R8RRrp`HinBRrq8HinRRrq`Hio2Rrr8HioBRrrpHip2,0*3B
!AIVDM,3,2,6,B,RrsHHQpRRrspHQq2RrtHHQqRRrt`HQr2Rru8HArRRruHHAsBRru`HAt2Rrup,0*3E
!AIVDM,3,3,6,B,HAtjRrv8H1uBRrvHH1uh,0*5E
$GPGSA,A,3,21,18,27,19,15,30,16,04,07,22,11,,1.6,1.0,1.3*32
$GPRMC,084018.000,A,4926.7632,N,01100.4486,E,0.06,135.46,281114,,,A*60
!AIVDO,1,1,,,B>pf?VP000<V=S74dC1Dcwa4kP06,0*2F
!AIVDM,3,1,7,A,8;U=g`25Nh4RRrv`H1vBRrvpH1w2Rs08H1wRRs0HH202Rs0`H20jRs18HB12,0*7D
!AIVDM,3,2,7,A,Rs1HHB1RRs1`HR1jRs1pHR22Rs2HI22RRs2pIB2RRs=HI22RRs=pHj2BRs>H,0*04
!AIVDM,3,3,7,A,Hj22S27`Hj2BS288Hj2h,0*4E
$GPVTG,135.46,T,,M,0.06,N,0.1,K,A*0F
!AIVDM,3,1,8,B,8;U=g`25Nh4jS28HHR32S28pHB3BS2:`H23RS2:pH242S2;8Gj4BS2;HGj4j,0*7B
!AIVDM,3,2,8,B,S2;`GR52S2;pGB5BS2<`G25RS438GB5RS44pGR52S458Gj4jS45`H242S45p,0*09
!AIVDM,3,3,8,B,H23jS468HB3BS46`HR30,0*04
!AIVDM,3,1,9,A,8;U=g`25Nh52S478Hj2jS47HI22RS47pIB3BS48HIR32S48pIj32S49`Ij2R,0*61
!AIVDM,3,2,9,A,S4=HIB2RS4=pI22RS4>HHj2BS4eHHj22S4qpIB1jS4s`I222S4upHj2RS50p,0*42
!AIVDM,3,3,9,A,HR22S588Hj22S5CpHB1h,0*47
!AIVDM,3,1,0,B,8;U=g`25Nh5BS5DpHj22TAMa;QJ2TANI;AJ2TANa:iJ2TANq:QJBTAPI:1JR,0*21
!AIVDM,3,2,0,B,TAQ99iJBTAQq9QJBTBVa9QJRTBha9AJBTD3I9iJRTD3q:AJRTD49:QJBTD4I,0*5A
!AIVDM,3,3,0,B,:iJ2TD4a;AIjTD4q;QIh,0*3C
!AIVDM,3,1,1,A,8;U=g`25Nh5RTD5I;iJBTINq;QIjTIP9;AIjTIPI;1J2TIPa:QJ2TIPq:AJR,0*59
!AIVDM,3,2,1,A,TIQI:1JRTIQq9iJjTISa9QJBTKlq9iJjTKna:1JRTKnq:AJBTKnq:iJ2TKo9,0*62
!AIVDM,3,3,1,A,;1J2TKoI;QIjTKoq;iJ@,0*4C
!AIVDM,3,1,2,B,8;U=g`25Nh5jTQS9<1JBTREa;iJRTRLq;iK2TRMI;AK2TRMa;1KBTRMq:iKR,0*4D
!AIVDM,3,2,2,B,TRNI:QKjTRP9:1L2TRPq9iLBTRn9:1L2TRo9;1KRTRoa;AK2TRpI;iJjTS4a,0*4D
!AIVDM,3,3,2,B,;iJBTS59;QJBTS5q;1JP,0*77
!AIVDM,3,1,3,A,8;U=g`25Nh62TS:a;QJBTS;9;iJBTaNq;QJBTaPa;AJRTaR9:iJBTaRa:QJB,0*51
!AIVDM,3,2,3,A,TaS9:AJRTaSa:1JBTaT99iJBTaU99QJBTcrI9iJRTcs9:1JRTcsI:AJBTcsa,0*64
!AIVDM,3,3,3,A,:iJ2Tcsq;1J2Tct9;AIh,0*58
$GPGGA,084019.000,4926.7631,N,01100.4486,E,1,11,1.0,348.3,M,47.8,M,,0000*5A
$GPGLL,4926.7631,N,01100.4486,E,084019.000,A,A*59
!AIVDM,3,1,4,B,8;U=g`25Nh6BTcta;iJ2TrDI;iJRU1U9;QJ2U1Uq;1J2U1V9:iJ2U1VI:AJB,0*43
!AIVDM,3,2,4,B,U1Va:1JRU1W9:1JBU1Wa9QJRU1`I9AJBU3s99iJRU3sq:AJRU3t9:QJBU3tI,0*36
!AIVDM,3,3,4,B,:iJ2U3ta;AIjU3tq;QIh,0*38
$GPGSA,A,3,21,18,27,19,15,30,16,04,07,22,11,,1.6,1.0,1.3*32
$GPRMC,084019.000,A,4926.7631,N,01100.4486,E,0.09,132.80,281114,,,A*60
!AIVDM,3,1,5,A,8;U=g`25Nh6RU3ua;QJBU9Ja;iJBU9M9<1J2U9Na;QIjU9Nq;AIjU9P9:iJ2,0*76
!AIVDM,3,2,5,A,U9PI:QJBU9Pa:AJRU9Qa9iJBU9RI9QJBa1Nq;iJRa1Pq<1JRa1Rq;iJ2a1Sa,0*53
!AIVDM,3,3,5,A,;AIja1Sq;1J2a1T9:QJ0,0*66
$GPVTG,132.80,T,,M,0.09,N,0.2,K,A*0E
!AIVDO,1,1,,,B>pf?VP000<V=S74dBuC3waTkP06,0*5D
!AIVDM,3,1,6,B,8;U=g`25Nh6ja1TI:AJRa1U9:1JBa1Ua9QJRa1VI9QJBa3sq9iJRa3v9:1JR,0*3C
!AIVDM,3,2,6,B,a3va:AJRa3vq:QJBa40I:iJ2a419;AJBa41a;QJBa429;iJBa9PI;QJBa9Q9,0*5A
!AIVDM,3,3,6,B,;AJRa9Sa:iJBa9T9:AJ@,0*04
!AIVDM,3,1,7,A,8;U=g`25Nh72a9Ta:1JRa9Ua9iJBa9VI9QJBa;t99iJRa;ta:1JRa;tq:QJB,0*09
!AIVDM,3,2,7,A,a;u9:iJ2a;uI;AIja;ua;QIja;v9;iJBaAN9;QJBaANq;AJRaARI:iJBaARq,0*71
!AIVDM,3,3,7,A,:AJRaASa:1JRaATI9iJ@,0*14
!AIVDM,3,1,8,B,8;U=g`25Nh7BaAU99QJBaCqa9iJRaCr9:1JRaCrI:QJ2aCra;1J2aCrq;AIj,0*3A
!AIVDM,3,2,8,B,aCs9;QIjaCsa;iJBaaN9<1JBaaQq;QJ2aaRa;AIjaaRq:iJ2aaS9:QJBaaSI,0*66
!AIVDM,3,3,8,B,:1JRaaU99iJBaaV99QJ@,0*37
!AIVDM,3,1,9,A,8;U=g`25Nh7Raahq91JBab;I9AJBacsq9QJRactI9iJjactq:AJBacu9:iJ2,0*03
!AIVDM,3,2,9,A,acuI;1J2acua;QIjacv9;iJBaiQI<1JRaiS9;iJ2aiSa;QIjaiSq;AIjaiT9,0*32
!AIVDM,3,3,9,A,;1J2aiTI:QJ2aiTa:AJP,0*37
!AIVDM,3,1,0,B,8;U=g`25Nh7jaiWI:1JBaiWq9iJBai`q9QJBb2aq9AJ2b2ba91IRb2dI9AJ2,0*60
!AIVDM,3,2,0,B,c3sI9QJRc3sq9iJRc3ta:AJBc3tq:iJ2c3u9;1J2c3uI;QIjc3uq;iJ2c:79,0*3E
!AIVDM,3,3,0,B,;iJRc:7a;iK2c:89;AK@,0*52
!AIVDM,3,1,1,A,8;U=g`25Nh82c:8I;1KRc:8a:iKjc:99:AKjc::9:1LBc:HI:AKjc:Hq:iKR,0*6F
!AIVDM,3,2,1,A,c:I9;1KRc:II;AKBc:Ia;QK2c:J9;iJRcL=a;iJRcQca<1JBcQf9;iJBcQfa,0*0A
!AIVDM,3,3,1,A,;QJ2cQh9;AIjcQhI:iJ0,0*05
$GPGGA,084020.000,4926.7630,N,01100.4485,E,1,11,1.0,348.0,M,47.8,M,,0000*51
$GPGLL,4926.7630,N,01100.4485,E,084020.000,A,A*51
!AIVDM,3,1,2,B,8;U=g`25Nh8B<k<p<k<jRrp`HinBRrq8HinRRrq`Hio2Rrr8HioBRrrpHip2,0*1B
!AIVDM,3,2,2,B,RrsHHQpRRrspHQq2RrtHHQqRRrt`HQr2Rru8HArRRruHHAsBRru`HAt2Rrup,0*3A
!AIVDM,3,3,2,B,HAtjRrv8H1uBRrvHH1uh,0*5A
$GPGSA,A,3,21,18,27,19,15,30,16,04,07,22,11,,1.6,1.0,1.3*32
$GPRMC,084020.000,A,4926.7630,N,01100.4485,E,0.11,183.74,281114,,,A*60
!AIVDO,1,1,,,B>pf?VP00@<V=RW4dBqjowb4kP06,0*5E
$GPVTG,183.74,T,,M,0.11,N,0.2,K,A*06
!AIVDM,3,1,3,B,8;U=g`25Nh8jS28HHR32S28pHB3BS2:`H23RS2:pH242S2;8Gj4BS2;HGj4j,0*7C
!AIVDM,3,2,3,B,S2;`GR52S2;pGB5BS2<`G25RS438GB5RS44pGR52S458Gj4jS45`H242S45p,0*02
!AIVDM,3,3,3,B,H23jS468HB3BS46`HR30,0*0F
!AIVDM,3,1,4,A,8;U=g`25Nh92S478Hj2jS47HI22RS47pIB3BS48HIR32S48pIj32S49`Ij2R,0*60
!AIVDM,3,2,4,A,S4=HIB2RS4=pI22RS4>HHj2BS4eHHj22S4qpIB1jS4s`I222S4upHj2RS50p,0*4F
!AIVDM,3,3,4,A,HR22S588Hj22S5CpHB1h,0*4A
!AIVDM,3,1,5,B,8;U=g`25Nh9BS5DpHj22TAMa;QJ2TANI;AJ2TANa:iJ2TANq:QJBTAPI:1JR,0*28
!AIVDM,3,2,5,B,TAQ99iJBTAQq9QJBTBVa9QJRTBha9AJBTD3I9iJRTD3q:AJRTD49:QJBTD4I,0*5F
!AIVDM,3,3,5,B,:iJ2TD4a;AIjTD4q;QIh,0*39
!AIVDM,3,1,6,A,8;U=g`25Nh9RTD5I;iJBTINq;QIjTIP9;AIjTIPI;1J2TIPa:QJ2TIPq:AJR,0*52
!AIVDM,3,2,6,A,TIQI:1JRTIQq9iJjTISa9QJBTKlq9iJjTKna:1JRTKnq:AJBTKnq:iJ2TKo9,0*65
!AIVDM,3,3,6,A,;1J2TKoI;QIjTKoq;iJ@,0*4B
!AIVDM,3,1,7,B,8;U=g`25Nh9jTQS9<1JBTREa;iJRTRLq;iK2TRMI;AK2TRMa;1KBTRMq:iKR,0*44
!AIVDM,3,2,7,B,TRNI:QKjTRP9:1L2TRPq9iLBTRn9:1L2TRo9;1KRTRoa;AK2TRpI;iJjTS4a,0*48
!AIVDM,3,3,7,B,;iJBTS59;QJBTS5q;1JP,0*72
!AIVDM,3,1,8,A,8;U=g`25Nh:2TS:a;QJBTS;9;iJBTaNq;QJBTaPa;AJRTaR9:iJBTaRa:QJB,0*56
!AIVDM,3,2,8,A,TaS9:AJRTaSa:1JBTaT99iJBTaU99QJBTcrI9iJRTcs9:1JRTcsI:AJBTcsa,0*6F
!AIVDM,3,3,8,A,:iJ2Tcsq;1J2Tct9;AIh,0*53
$GPGGA,084021.000,4926.7629,N,01100.4486,E,1,11,1.0,347.7,M,47.8,M,,0000*53
$GPGLL,4926.7629,N,01100.4486,E,084021.000,A,A*5B
!AIVDM,3,1,9,B,8;U=g`25Nh:BTcta;iJ2TrDI;iJRU1U9;QJ2U1Uq;1J2U1V9:iJ2U1VI:AJB,0*42
!AIVDM,3,2,9,B,U1Va:1JRU1W9:1JBU1Wa9QJRU1`I9AJBU3s99iJRU3sq:AJRU3t9:QJBU3tI,0*3B
!AIVDM,3,3,9,B,:iJ2U3ta;AIjU3tq;QIh,0*35
$GPGSA,A,3,21,18,27,19,15,30,16,04,07,22,11,,1.6,1.0,1.3*32
!AIVDM,3,1,0,A,8;U=g`25Nh:RU3ua;QJBU9Ja;iJBU9M9<1J2U9Na;QIjU9Nq;AIjU9P9:iJ2,0*7F
!AIVDM,3,2,0,A,U9PI:QJBU9Pa:AJRU9Qa9iJBU9RI9QJBa1Nq;iJRa1Pq<1JRa1Rq;iJ2a1Sa,0*56
!AIVDM,3,3,0,A,;AIja1Sq;1J2a1T9:QJ0,0*63
$GPGSV,3,1,12,27,87,200,36,22,62,134,38,19,57,299,27,18,46,066,39*70
$GPGSV,3,2,12,16,35,197,34,04,26,257,24,21,24,073,26,11,13,270,21*75
!AIVDM,3,1,1,B,8;U=g`25Nh:ja1TI:AJRa1U9:1JBa1Ua9QJRa1VI9QJBa3sq9iJRa3v9:1JR,0*37
!AIVDM,3,2,1,B,a3va:AJRa3vq:QJBa40I:iJ2a419;AJBa41a;QJBa429;iJBa9PI;QJBa9Q9,0*5D
!AIVDM,3,3,1,B,;AJRa9Sa:iJBa9T9:AJ@,0*03
$GPGSV,3,3,12,15,11,039,40,30,07,318,33,07,06,288,27,14,02,135,35*7E
!AIVDM,3,1,2,A,8;U=g`25Nh;2a9Ta:1JRa9Ua9iJBa9VI9QJBa;t99iJRa;ta:1JRa;tq:QJB,0*00
!AIVDM,3,2,2,A,a;u9:iJ2a;uI;AIja;ua;QIja;v9;iJBaAN9;QJBaANq;AJRaARI:iJBaARq,0*74
!AIVDM,3,3,2,A,:AJRaASa:1JRaATI9iJ@,0*11
$GPRMC,084021.000,A,4926.7629,N,01100.4486,E,0.18,136.57,281114,,,A*6C
!AIVDO,1,1,,,B>pf?VP00@<V=S74dBmEGwbTkP06,0*44
$GPVTG,136.57,T,,M,0.18,N,0.3,K,A*01
!AIVDM,3,1,3,B,8;U=g`25Nh;BaAU99QJBaCqa9iJRaCr9:1JRaCrI:QJ2aCra;1J2aCrq;AIj,0*3D
!AIVDM,3,2,3,B,aCs9;QIjaCsa;iJBaaN9<1JBaaQq;QJ2aaRa;AIjaaRq:iJ2aaS9:QJBaaSI,0*6D
!AIVDM,3,3,3,B,:1JRaaU99iJBaaV99QJ@,0*3C
!AIVDM,3,1,4,A,8;U=g`25Nh;Raahq91JBab;I9AJBacsq9QJRactI9iJjactq:AJBacu9:iJ2,0*02
!AIVDM,3,2,4,A,acuI;1J2acua;QIjacv9;iJBaiQI<1JRaiS9;iJ2aiSa;QIjaiSq;AIjaiT9,0*3F
!AIVDM,3,3,4,A,;1J2aiTI:QJ2aiTa:AJP,0*3A
!AIVDM,3,1,5,A,8;U=g`25Nh<2c:8I;1KRc:8a:iKjc:99:AKjc::9:1LBc:HI:AKjc:Hq:iKR,0*6F
!AIVDM,3,2,5,A,c:I9;1KRc:II;AKBc:Ia;QK2c:J9;iJRcL=a;iJRcQca<1JBcQf9;iJBcQfa,0*0E
!AIVDM,3,3,5,A,;QJ2cQh9;AIjcP0I8AJ0,0*72
$GPGGA,084022.000,4926.7628,N,01100.4486,E,1,11,1.0,347.4,M,47.8,M,,0000*52
$GPGLL,4926.7628,N,01100.4486,E,084022.000,A,A*59
$GPGSA,A,3,21,18,27,19,15,30,16,04,07,22,11,,1.6,1.0,1.3*32
$GPRMC,084022.000,A,4926.7628,N,01100.4486,E,0.20,128.84,281114,,,A*64
!AIVDO,1,1,,,B>pf?VP00P<V=S74dBi@Swc4kP06,0*20
$GPVTG,128.84,T,,M,0.20,N,0.4,K,A*0C
$GPGGA,084023.000,4926.7626,N,01100.4487,E,1,11,1.0,347.0,M,47.8,M,,0000*58
$GPGLL,4926.7626,N,01100.4487,E,084023.000,A,A*57
$GPGSA,A,3,21,18,27,19,15,30,16,04,07,22,11,,1.6,1.0,1.3*32
$GPRMC,084023.000,A,4926.7626,N,01100.4487,E,0.19,131.12,281114,,,A*67
!AIVDO,1,1,,,B>pf?VP00@<V=SW4dBaAwwcTkP06,0*1D
$GPVTG,131.12,T,,M,0.19,N,0.4,K,A*01
$GPGGA,084024.000,4926.7625,N,01100.4488,E,1,11,1.0,346.6,M,47.8,M,,0000*54
$GPGLL,4926.7625,N,01100.4488,E,084024.000,A,A*5C
$GPGSA,A,3,21,18,27,19,15,30,16,04,07,22,11,,1.6,1.0,1.3*32
$GPRMC,084024.000,A,4926.7625,N,01100.4488,E,0.23,127.63,281114,,,A*64
!AIVDO,1,1,,,B>pf?VP00P<V=T74dBU?kwd4kP06,0*5B
$GPVTG,127.63,T,,M,0.23,N,0.4,K,A*09
$GPGGA,084025.000,4926.7623,N,01100.4490,E,1,11,1.0,346.1,M,47.8,M,,0000*5D
$GPGLL,4926.7623,N,01100.4490,E,084025.000,A,A*52
$GPGSA,A,3,21,18,27,19,15,30,16,04,07,22,11,,1.6,1.0,1.3*32
$GPRMC,084025.000,A,4926.7623,N,01100.4490,E,0.20,134.32,281114,,,A*6F
!AIVDO,1,1,,,B>pf?VP00P<V=U74dBMCwwdTkP06,0*42
$GPVTG,134.32,T,,M,0.20,N,0.4,K,A*0C
$GPGGA,084026.000,4926.7622,N,01100.4491,E,1,11,1.0,345.7,M,47.8,M,,0000*5B
$GPGLL,4926.7622,N,01100.4491,E,084026.000,A,A*51
$GPGSA,A,3,21,18,27,19,15,30,16,04,07,22,11,,1.6,1.0,1.3*32
$GPGSV,3,1,12,27,87,200,35,22,62,134,37,19,57,299,28,18,46,066,39*73
$GPGSV,3,2,12,16,35,197,34,04,26,257,24,21,24,073,25,11,13,270,21*76
$GPGSV,3,3,12,15,11,039,40,30,07,318,34,07,06,288,28,14,02,135,34*77
$GPRMC,084026.000,A,4926.7622,N,01100.4491,E,0.17,133.49,281114,,,A*63
!AIVDO,1,1,,,B>pf?VP00@<V=UW4dBICKwe4kP06,0*6B
$GPVTG,133.49,T,,M,0.17,N,0.3,K,A*04
$GPGGA,084027.000,4926.7620,N,01100.4491,E,1,11,1.0,345.2,M,47.8,M,,0000*5D
$GPGLL,4926.7620,N,01100.4491,E,084027.000,A,A*52
$GPGSA,A,3,21,18,27,19,15,30,16,04,07,22,11,,1.6,1.0,1.3*32
$GPRMC,084027.000,A,4926.7620,N,01100.4491,E,0.16,169.44,281114,,,A*63
!AIVDO,1,1,,,B>pf?VP00@<V=UW4dBAasweTkP06,0*19
$GPVTG,169.44,T,,M,0.16,N,0.3,K,A*07
$GPGGA,084028.000,4926.7619,N,01100.4493,E,1,11,1.0,344.8,M,47.8,M,,0000*51
$GPGLL,4926.7619,N,01100.4493,E,084028.000,A,A*55
$GPGSA,A,3,21,18,27,19,15,30,16,04,07,22,11,,1.6,1.0,1.3*32
$GPRMC,084028.000,A,4926.7619,N,01100.4493,E,0.20,142.01,281114,,,A*69
!AIVDO,1,1,,,B>pf?VP00P<V=VW4dB=Hkwf4kP06,0*24
$GPVTG,142.01,T,,M,0.20,N,0.4,K,A*0D
$GPGGA,084029.000,4926.7617,N,01100.4494,E,1,11,1.0,344.3,M,47.8,M,,0000*52
$GPGLL,4926.7617,N,01100.4494,E,084029.000,A,A*5D
$GPGSA,A,3,21,18,27,19,15,30,16,04,07,22,11,,1.6,1.0,1.3*32
$GPRMC,084029.000,A,4926.7617,N,01100.4494,E,0.20,138.47,281114,,,A*6E
!AIVDO,1,1,,,B>pf?VP00P<V=W74dB5FSwfTkP06,0*1B
$GPVTG,138.47,T,,M,0.20,N,0.4,K,A*02
$GPGGA,084030.000,4926.7616,N,01100.4495,E,1,11,1.0,343.8,M,47.8,M,,0000*56
$GPGLL,4926.7616,N,01100.4495,E,084030.000,A,A*55
$GPGSA,A,3,21,18,27,19,15,30,16,04,07,22,11,,1.6,1.0,1.3*32
$GPRMC,084030.000,A,4926.7616,N,01100.4495,E,0.20,135.84,281114,,,A*64
!AIVDO,1,1,,,B>pf?VP00P<V=WW4dB1Dswg4kP06,0*3C
$GPVTG,135.84,T,,M,0.20,N,0.4,K,A*00
$GPGGA,084031.000,4926.7614,N,01100.4497,E,1,11,1.0,343.4,M,47.8,M,,0000*5B
$GPGLL,4926.7614,N,01100.4497,E,084031.000,A,A*54
$GPGSA,A,3,21,18,27,19,15,30,16,04,07,22,11,,1.6,1.0,1.3*32
$GPGSV,3,1,12,27,87,200,34,22,62,134,33,19,57,299,34,18,46,066,38*7A
$GPGSV,3,2,12,16,35,197,33,04,26,257,24,21,24,073,32,11,13,270,21*77
$GPGSV,3,3,12,15,11,039,41,30,07,318,34,07,06,288,28,14,02,135,33*71
$GPRMC,084031.000,A,4926.7614,N,01100.4497,E,0.20,128.79,281114,,,A*6B
!AIVDO,1,1,,,B>pf?VP00P<V=`W4dAq@OwgTkP06,0*10
$GPVTG,128.79,T,,M,0.20,N,0.4,K,A*0E
$GPGGA,084032.000,4926.7613,N,01100.4498,E,1,11,1.0,342.9,M,47.8,M,,0000*5C
$GPGLL,4926.7613,N,01100.4498,E,084032.000,A,A*5F
$GPGSA,A,3,21,18,27,19,15,30,16,04,07,22,11,,1.6,1.0,1.3*32
$GPRMC,084032.000,A,4926.7613,N,01100.4498,E,0.15,171.10,281114,,,A*65
!AIVDO,1,1,,,B>pf?VP00@<V=a74dAmbwwh4kP06,0*08
$GPVTG,171.10,T,,M,0.15,N,0.3,K,A*0C
$GPGGA,084033.000,4926.7611,N,01100.4499,E,1,11,1.0,342.4,M,47.8,M,,0000*53
$GPGLL,4926.7611,N,01100.4499,E,084033.000,A,A*5D
$GPGSA,A,3,21,18,27,19,15,30,16,04,07,22,11,,1.6,1.0,1.3*32
$GPRMC,084033.000,A,4926.7611,N,01100.4499,E,0.16,135.62,281114,,,A*61
!AIVDO,1,1,,,B>pf?VP00@<V=aW4dAeDkwhTkP06,0*3A
$GPVTG,135.62,T,,M,0.16,N,0.3,K,A*0A
$GPGGA,084034.000,4926.7610,N,01100.4501,E,1,11,1.0,341.9,M,47.8,M,,0000*5B
$GPGLL,4926.7610,N,01100.4501,E,084034.000,A,A*5B
$GPGSA,A,3,21,18,27,19,15,30,16,04,07,22,11,,1.6,1.0,1.3*32
$GPRMC,084034.000,A,4926.7610,N,01100.4501,E,0.15,146.12,281114,,,A*67
!AIVDO,1,1,,,B>pf?VP00@<V=bW4dAaKGwi4kP06,0*7F
$GPVTG,146.12,T,,M,0.15,N,0.3,K,A*0A
$GPGGA,084035.000,4926.7608,N,01100.4502,E,1,11,1.0,341.5,M,47.8,M,,0000*5C
$GPGLL,4926.7608,N,01100.4502,E,084035.000,A,A*50
$GPGSA,A,3,21,18,27,19,15,30,16,04,07,22,11,,1.6,1.0,1.3*32
$GPRMC,084035.000,A,4926.7608,N,01100.4502,E,0.18,122.48,281114,,,A*6C
!AIVDO,1,1,,,B>pf?VP00@<V=c74dAQ<SwiTkP06,0*2D
$GPVTG,122.48,T,,M,0.18,N,0.3,K,A*0A
!AIVDM,1,1,,B,1;U=g`?P000jHejLBh6>4?wtAU2P,0*22
$GPGGA,084036.000,4926.7607,N,01100.4503,E,1,11,1.0,341.0,M,47.8,M,,0000*54
$GPGLL,4926.7607,N,01100.4503,E,084036.000,A,A*5D
$GPGSA,A,3,21,18,27,19,15,30,16,04,07,22,11,,1.6,1.0,1.3*32
$GPGSV,3,1,12,27,87,200,30,22,62,134,32,19,57,299,33,18,46,066,37*77
$GPGSV,3,2,12,16,35,197,33,04,26,257,20,21,24,073,31,11,13,270,16*74
$GPGSV,3,3,12,15,11,039,41,30,07,318,33,07,06,288,27,14,02,135,34*7E
$GPRMC,084036.000,A,4926.7607,N,01100.4503,E,0.14,163.14,281114,,,A*61
!AIVDO,1,1,,,B>pf?VP00@<V=cW4dAMUwwj4kP06,0*7F
$GPVTG,163.14,T,,M,0.14,N,0.3,K,A*0A
$GPGGA,084037.000,4926.7605,N,01100.4505,E,1,11,1.0,340.5,M,47.8,M,,0000*55
$GPGLL,4926.7605,N,01100.4505,E,084037.000,A,A*58
$GPGSA,A,3,21,18,27,19,15,30,16,04,07,22,11,,1.6,1.0,1.3*32
$GPRMC,084037.000,A,4926.7605,N,01100.4505,E,0.13,163.85,281114,,,A*6B
!AIVDO,1,1,,,B>pf?VP00@<V=dW4dAEVKwjTkP06,0*2F
$GPVTG,163.85,T,,M,0.13,N,0.2,K,A*04
!AIVDM,1,1,,A,>;U=g`0984<dEB1@4m0E800,2*71
$GPGGA,084038.000,4926.7604,N,01100.4506,E,1,11,1.0,340.1,M,47.8,M,,0000*5C
$GPGLL,4926.7604,N,01100.4506,E,084038.000,A,A*55
$GPGSA,A,3,21,18,27,19,15,30,16,04,07,22,11,,1.6,1.0,1.3*32
$GPRMC,084038.000,A,4926.7604,N,01100.4506,E,0.13,158.65,281114,,,A*60
!AIVDO,1,1,,,B>pf?VP00@<V=e74dAAS;wk4kP06,0*5E
$GPVTG,158.65,T,,M,0.13,N,0.2,K,A*02
$GPGGA,084039.000,4926.7603,N,01100.4507,E,1,11,1.0,339.7,M,47.8,M,,0000*53
$GPGLL,4926.7603,N,01100.4507,E,084039.000,A,A*52
$GPGSA,A,3,21,18,27,19,15,30,16,04,07,22,11,,1.6,1.0,1.3*32
$GPRMC,084039.000,A,4926.7603,N,01100.4507,E,0.09,145.19,281114,,,A*6B
!AIVDO,1,1,,,B>pf?VP000<V=eW4dA=JgwkTkP06,0*17
$GPVTG,145.19,T,,M,0.09,N,0.2,K,A*0E
!AIVDM,2,1,6,B,5;U=g`400000rp6p000@UHE:0PDq9T000000000N6pd7440Ht04nC5000000,0*60
!AIVDM,2,2,6,B,0000000000<,2*2D
$GPGGA,084040.000,4926.7602,N,01100.4508,E,1,10,1.0,339.3,M,47.8,M,,0000*56
$GPGLL,4926.7602,N,01100.4508,E,084040.000,A,A*52
$GPGSA,A,3,21,18,27,19,15,30,16,07,22,11,,,1.6,1.0,1.3*36
$GPRMC,084040.000,A,4926.7602,N,01100.4508,E,0.13,138.40,281114,,,A*66
!AIVDO,1,1,,,B>pf?VP00@<V=f74dA9FSwl4kP06,0*5F
$GPVTG,138.40,T,,M,0.13,N,0.2,K,A*03
$GPGGA,084041.000,4926.7601,N,01100.4509,E,1,10,1.0,338.9,M,47.8,M,,0000*5E
$GPGLL,4926.7601,N,01100.4509,E,084041.000,A,A*51
$GPGSA,A,3,21,18,27,19,15,30,16,07,22,11,,,1.6,1.0,1.3*36
$GPGSV,3,1,12,27,87,200,30,22,62,134,33,19,57,299,33,18,46,066,31*70
$GPGSV,3,2,12,16,35,197,32,04,26,257,14,21,24,073,31,11,13,270,19*7D
$GPGSV,3,3,12,15,11,039,42,30,07,318,32,07,06,288,27,14,02,135,34*7C
!AIVDM,1,1,,A,1;U=g`?P010jHf4LBh5f4?wtAU2P,0*26
$GPRMC,084041.000,A,4926.7601,N,01100.4509,E,0.07,172.27,281114,,,A*6F
!AIVDO,1,1,,,B>pf?VP000<V=fW4dA5ccwlTkP06,0*36
$GPVTG,172.27,T,,M,0.07,N,0.1,K,A*0A
$GPGGA,084042.000,4926.7600,N,01100.4509,E,1,10,1.0,338.5,M,47.8,M,,0000*50
$GPGLL,4926.7600,N,01100.4509,E,084042.000,A,A*53
$GPGSA,A,3,21,18,27,19,15,30,16,07,22,11,,,1.6,1.0,1.3*36
$GPRMC,084042.000,A,4926.7600,N,01100.4509,E,0.11,144.96,281114,,,A*65
!AIVDO,1,1,,,B>pf?VP00@<V=fW4dA1JWwm4kP06,0*3E
$GPVTG,144.96,T,,M,0.11,N,0.2,K,A*01
$GPGGA,084043.000,4926.7599,N,01100.4510,E,1,11,1.0,338.2,M,47.8,M,,0000*5C
$GPGLL,4926.7599,N,01100.4510,E,084043.000,A,A*59
$GPGSA,A,3,21,18,27,19,15,30,16,04,07,22,11,,1.6,1.0,1.3*32
$GPRMC,084043.000,A,4926.7599,N,01100.4510,E,0.06,174.28,281114,,,A*6F
!AIVDO,1,1,,,B>pf?VP000<V=g74d@udswmTkP06,0*00
$GPVTG,174.28,T,,M,0.06,N,0.1,K,A*02
!AIVDM,1,1,,B,1;U=g`?P000jHf6LBh5N4?wtAU2P,0*0E
$GPGGA,084044.000,4926.7598,N,01100.4510,E,1,11,1.0,337.8,M,47.8,M,,0000*5F
$GPGLL,4926.7598,N,01100.4510,E,084044.000,A,A*5F
$GPGSA,A,3,21,18,27,19,15,30,16,04,07,22,11,,1.6,1.0,1.3*32
$GPRMC,084044.000,A,4926.7598,N,01100.4510,E,0.12,176.90,281114,,,A*6D
!AIVDO,1,1,,,B>pf?VP00@<V=g74d@qfWwn4kP06,0*31
$GPVTG,176.90,T,,M,0.12,N,0.2,K,A*05
$GPGGA,084045.000,4926.7597,N,01100.4511,E,1,11,1.0,337.4,M,47.8,M,,0000*5C
$GPGLL,4926.7597,N,01100.4511,E,084045.000,A,A*50
$GPGSA,A,3,21,18,27,19,15,30,16,04,07,22,11,,1.6,1.0,1.3*32
$GPRMC,084045.000,A,4926.7597,N,01100.4511,E,0.07,168.61,281114,,,A*67
!AIVDO,1,1,,,B>pf?VP000<V=gW4d@maKwnTkP06,0*46
$GPVTG,168.61,T,,M,0.07,N,0.1,K,A*03
!AIVDM,1,1,,A,1;U=g`?P010jHf8LBh5N4?wtAU2P,0*02
$GPGGA,084046.000,4926.7596,N,01100.4511,E,1,11,1.0,337.0,M,47.8,M,,0000*5A
$GPGLL,4926.7596,N,01100.4511,E,084046.000,A,A*52
$GPGSA,A,3,21,18,27,19,15,30,16,04,07,22,11,,1.6,1.0,1.3*32
$GPGSV,3,1,12,27,87,195,30,22,62,134,34,19,57,299,31,18,45,066,30*78
$GPGSV,3,2,12,16,35,197,32,04,26,257,17,21,24,073,32,11,13,270,21*76
$GPGSV,3,3,12,15,11,039,43,30,07,317,32,07,06,287,26,14,02,135,35*7D
$GPRMC,084046.000,A,4926.7596,N,01100.4511,E,0.10,153.29,281114,,,A*67
!AIVDO,1,1,,,B>pf?VP00@<V=gW4d@iOkwo4kP06,0*5D
$GPVTG,153.29,T,,M,0.10,N,0.2,K,A*02
$GPGGA,084047.000,4926.7595,N,01100.4512,E,1,11,1.0,336.6,M,47.8,M,,0000*5C
$GPGLL,4926.7595,N,01100.4512,E,084047.000,A,A*53
$GPGSA,A,3,21,18,27,19,15,30,16,04,07,22,11,,1.6,1.0,1.3*32
$GPRMC,084047.000,A,4926.7595,N,01100.4512,E,0.10,122.21,281114,,,A*68
!AIVDO,1,1,,,B>pf?VP00@<V=h74d@e<KwoTkP06,0*0D
$GPVTG,122.21,T,,M,0.10,N,0.2,K,A*0C
$GPGGA,084048.000,4926.7594,N,01100.4512,E,1,11,1.0,336.3,M,47.8,M,,0000*57
$GPGLL,4926.7594,N,01100.4512,E,084048.000,A,A*5D
$GPGSA,A,3,21,18,27,19,15,30,16,04,07,22,11,,1.6,1.0,1.3*32
$GPRMC,084048.000,A,4926.7594,N,01100.4512,E,0.14,111.67,281114,,,A*60
!AIVDO,1,1,,,B>pf?VP00@<V=h74d@a5kwp4kP06,0*5F
$GPVTG,111.67,T,,M,0.14,N,0.3,K,A*0B
$GPGGA,084049.000,4926.7593,N,01100.4513,E,1,11,1.0,336.0,M,47.8,M,,0000*53
$GPGLL,4926.7593,N,01100.4513,E,084049.000,A,A*5A
$GPGSA,A,3,21,18,27,19,15,30,16,04,07,22,11,,1.6,1.0,1.3*32
$GPRMC,084049.000,A,4926.7593,N,01100.4513,E,0.07,142.62,281114,,,A*66
!AIVDO,1,1,,,B>pf?VP000<V=hW4d@UI;wpTkP06,0*37
$GPVTG,142.62,T,,M,0.07,N,0.1,K,A*08
$GPGGA,084050.000,4926.7593,N,01100.4513,E,1,11,1.0,335.6,M,47.8,M,,0000*5E
$GPGLL,4926.7593,N,01100.4513,E,084050.000,A,A*52
$GPGSA,A,3,21,18,27,19,15,30,16,04,07,22,11,,1.6,1.0,1.3*32
$GPRMC,084050.000,A,4926.7593,N,01100.4513,E,0.06,148.58,281114,,,A*6C
!AIVDO,1,1,,,B>pf?VP000<V=hW4d@ULowq4kP06,0*07
$GPVTG,148.58,T,,M,0.06,N,0.1,K,A*0A
$GPGGA,084051.000,4926.7592,N,01100.4513,E,1,11,1.0,335.3,M,47.8,M,,0000*5B
$GPGLL,4926.7592,N,01100.4513,E,084051.000,A,A*52
$GPGSA,A,3,21,18,27,19,15,30,16,04,07,22,11,,1.6,1.0,1.3*32
$GPGSV,3,1,12,27,87,194,30,22,62,134,35,19,58,299,19,18,45,066,29*75
$GPGSV,3,2,12,16,35,197,31,04,26,257,18,21,24,073,33,11,13,270,23*79
$GPGSV,3,3,12,15,11,039,43,30,07,317,30,07,06,287,26,14,02,135,35*7F
$GPRMC,084051.000,A,4926.7592,N,01100.4513,E,0.11,113.79,281114,,,A*67
!AIVDO,1,1,,,B>pf?VP00@<V=hW4d@Q77wqTkP06,0*30
$GPVTG,113.79,T,,M,0.11,N,0.2,K,A*02
$GPGGA,084052.000,4926.7591,N,01100.4514,E,1,10,1.0,335.1,M,47.8,M,,0000*5F
$GPGLL,4926.7591,N,01100.4514,E,084052.000,A,A*55
$GPGSA,A,3,21,18,27,19,15,30,16,04,22,11,,,1.7,1.0,1.3*34
$GPRMC,084052.000,A,4926.7591,N,01100.4514,E,0.14,103.47,281114,,,A*69
!AIVDO,1,1,,,B>pf?VP00@<V=i74d@M0cwr4kP06,0*7D
$GPVTG,103.47,T,,M,0.14,N,0.3,K,A*0A
$GPGGA,084053.000,4926.7591,N,01100.4515,E,1,10,1.0,334.9,M,47.8,M,,0000*56
$GPGLL,4926.7591,N,01100.4515,E,084053.000,A,A*55
$GPGSA,A,3,21,18,27,19,15,30,16,04,22,11,,,1.7,1.0,1.3*34
$GPRMC,084053.000,A,4926.7591,N,01100.4515,E,0.12,96.24,281114,,,A*57
!AIVDO,1,1,,,B>pf?VP00@<V=iW4d@Lt;wrTkP06,0*60
$GPVTG,96.24,T,,M,0.12,N,0.2,K,A*35
$GPGGA,084054.000,4926.7591,N,01100.4515,E,1,11,1.0,334.6,M,47.8,M,,0000*5F
$GPGLL,4926.7591,N,01100.4515,E,084054.000,A,A*52
$GPGSA,A,3,21,18,27,19,15,30,16,04,07,22,11,,1.6,1.0,1.3*32
$GPRMC,084054.000,A,4926.7591,N,01100.4515,E,0.11,259.77,281114,,,A*64
!AIVDO,1,1,,,B>pf?VP00@<V=iW4d@NRGws4kP06,0*59
$GPVTG,259.77,T,,M,0.11,N,0.2,K,A*01
$GPGGA,084055.000,4926.7591,N,01100.4515,E,1,10,1.0,334.5,M,47.8,M,,0000*5C
$GPGLL,4926.7591,N,01100.4515,E,084055.000,A,A*53
$GPGSA,A,3,21,18,27,19,15,30,16,04,22,11,,,1.7,1.0,1.3*34
$GPRMC,084055.000,A,4926.7591,N,01100.4515,E,0.07,302.43,281114,,,A*6A
!AIVDO,1,1,,,B>pf?VP000<V=iW4d@Nu3wsTkP06,0*1A
$GPVTG,302.43,T,,M,0.07,N,0.1,K,A*0D
$GPGGA,084056.000,4926.7591,N,01100.4516,E,1,10,1.0,334.4,M,47.8,M,,0000*5D
$GPGLL,4926.7591,N,01100.4516,E,084056.000,A,A*53
$GPGSA,A,3,21,18,27,19,15,30,16,04,22,11,,,1.7,1.0,1.3*34
$GPGSV,3,1,12,27,87,194,30,22,62,134,36,19,58,299,15,18,45,066,24*77
$GPGSV,3,2,12,16,35,197,27,04,26,257,19,21,24,073,35,11,13,270,23*79
$GPGSV,3,3,12,15,11,039,43,30,07,317,30,07,06,287,22,14,02,135,35*7B
$GPRMC,084056.000,A,4926.7591,N,01100.4516,E,0.06,62.52,281114,,,A*5E
!AIVDO,1,1,,,B>pf?VP000<V=j74d@LW7wt4kP06,0*3A
$GPVTG,62.52,T,,M,0.06,N,0.1,K,A*39
$GPGGA,084057.000,4926.7592,N,01100.4517,E,1,10,1.0,334.4,M,47.8,M,,0000*5E
$GPGLL,4926.7592,N,01100.4517,E,084057.000,A,A*50
$GPGSA,A,3,21,18,27,19,15,30,16,04,22,11,,,1.7,1.0,1.3*34
$GPRMC,084057.000,A,4926.7592,N,01100.4517,E,0.12,52.93,281114,,,A*56
!AIVDO,1,1,,,B>pf?VP00@<V=jW4d@PQ7wtTkP06,0*50
$GPVTG,52.93,T,,M,0.12,N,0.2,K,A*31
$GPGGA,084058.000,4926.7592,N,01100.4518,E,1,10,1.0,334.5,M,47.8,M,,0000*5F
$GPGLL,4926.7592,N,01100.4518,E,084058.000,A,A*50
$GPGSA,A,3,21,18,27,19,15,30,16,04,22,11,,,1.7,1.0,1.3*34
$GPRMC,084058.000,A,4926.7592,N,01100.4518,E,0.14,56.00,281114,,,A*5E
!AIVDO,1,1,,,B>pf?VP00@<V=k74d@PS3wu4kP06,0*56
$GPVTG,56.00,T,,M,0.14,N,0.3,K,A*38
$GPGGA,084059.000,4926.7593,N,01100.4519,E,1,10,1.0,334.7,M,47.8,M,,0000*5C
$GPGLL,4926.7593,N,01100.4519,E,084059.000,A,A*51
$GPGSA,A,3,21,18,27,19,15,30,16,04,22,11,,,1.7,1.0,1.3*34
$GPRMC,084059.000,A,4926.7593,N,01100.4519,E,0.19,19.13,281114,,,A*5B
!AIVDO,1,1,,,B>pf?VP00@<V=kW4d@T;wwuTkP06,0*7E
$GPVTG,19.13,T,,M,0.19,N,0.3,K,A*3C
$GPGGA,084100.000,4926.7594,N,01100.4519,E,1,11,1.0,334.9,M,47.8,M,,0000*59
$GPGLL,4926.7594,N,01100.4519,E,084100.000,A,A*5B
$GPGSA,A,3,21,18,27,19,15,30,16,04,07,22,11,,1.6,1.0,1.3*32
$GPRMC,084100.000,A,4926.7594,N,01100.4519,E,0.22,17.79,281114,,,A*5B
!AIVDO,1,1,,,B>pf?VP00P<V=kW4d@`;7wP4kP06,0*5F
$GPVTG,17.79,T,,M,0.22,N,0.4,K,A*31
$GPGGA,084101.000,4926.7596,N,01100.4520,E,1,11,1.0,335.2,M,47.8,M,,0000*5A
$GPGLL,4926.7596,N,01100.4520,E,084101.000,A,A*52
$GPGSA,A,3,21,18,27,19,15,30,16,04,07,22,11,,1.6,1.0,1.3*32
$GPGSV,3,1,12,27,87,194,29,22,62,134,36,19,58,299,20,18,45,066,26*7B
$GPGSV,3,2,12,16,35,197,26,04,26,257,18,21,24,073,36,11,13,270,25*7C
$GPGSV,3,3,12,15,11,039,43,30,07,317,29,07,06,287,23,14,02,135,34*73
$GPRMC,084101.000,A,4926.7596,N,01100.4520,E,0.25,18.67,281114,,,A*55
!AIVDO,1,1,,,B>pf?VP00P<V=l74d@h;cwPTkP06,0*04
$GPVTG,18.67,T,,M,0.25,N,0.5,K,A*37
$GPGGA,084102.000,4926.7597,N,01100.4521,E,1,11,1.0,335.5,M,47.8,M,,0000*5E
$GPGLL,4926.7597,N,01100.4521,E,084102.000,A,A*51
$GPGSA,A,3,21,18,27,19,15,30,16,04,07,22,11,,1.6,1.0,1.3*32
$GPRMC,084102.000,A,4926.7597,N,01100.4521,E,0.26,5.19,281114,,,A*60
!AIVDO,1,1,,,B>pf?VP00P<V=lW4d@l3?wQ4kP06,0*55
$GPVTG,5.19,T,,M,0.26,N,0.5,K,A*01
$GPGGA,084103.000,4926.7599,N,01100.4522,E,1,11,1.0,336.0,M,47.8,M,,0000*54
$GPGLL,4926.7599,N,01100.4522,E,084103.000,A,A*5D
$GPGSA,A,3,21,18,27,19,15,30,16,04,07,22,11,,1.6,1.0,1.3*32
$GPRMC,084103.000,A,4926.7599,N,01100.4522,E,0.27,20.64,281114,,,A*50
!AIVDO,1,1,,,B>pf?VP00P<V=m74d@t<swQTkP06,0*0F
$GPVTG,20.64,T,,M,0.27,N,0.5,K,A*3D
!AIVDM,1,1,,B,1>O:wDNP000jHf4LBh=v4?wt1d00,0*42
$GPGGA,084104.000,4926.7601,N,01100.4521,E,1,11,1.0,336.5,M,47.8,M,,0000*57
$GPGLL,4926.7601,N,01100.4521,E,084104.000,A,A*5B
$GPGSA,A,3,21,18,27,19,15,30,16,04,07,22,11,,1.6,1.0,1.3*32
$GPRMC,084104.000,A,4926.7601,N,01100.4521,E,0.26,358.96,281114,,,A*66
!AIVDO,1,1,,,B>pf?VP00P<V=lW4dA7PGwR4kP06,0*17
$GPVTG,358.96,T,,M,0.26,N,0.5,K,A*0D
$GPGGA,084105.000,4926.7603,N,01100.4520,E,1,11,1.0,337.0,M,47.8,M,,0000*51
$GPGLL,4926.7603,N,01100.4520,E,084105.000,A,A*59
$GPGSA,A,3,21,18,27,19,15,30,16,04,07,22,11,,1.6,1.0,1.3*32
$GPRMC,084105.000,A,4926.7603,N,01100.4520,E,0.34,341.06,281114,,,A*66
!AIVDO,1,1,,,B>pf?VP00h<V=l74dA?E;wRTkP06,0*4E
$GPVTG,341.06,T,,M,0.34,N,0.6,K,A*0C
$GPGGA,084106.000,4926.7606,N,01100.4518,E,1,11,1.0,337.6,M,47.8,M,,0000*5A
$GPGLL,4926.7606,N,01100.4518,E,084106.000,A,A*54
$GPGSA,A,3,21,18,27,19,15,30,16,04,07,22,11,,1.6,1.0,1.3*32
$GPGSV,3,1,12,27,87,194,29,22,62,134,36,19,58,299,29,18,45,066,30*75
$GPGSV,3,2,12,16,35,197,26,04,26,257,17,21,24,073,36,11,13,270,25*73
$GPGSV,3,3,12,15,11,039,42,30,07,317,30,07,06,287,23,14,02,135,30*7E
$GPRMC,084106.000,A,4926.7606,N,01100.4518,E,0.32,337.63,281114,,,A*6F
!AIVDO,1,1,,,B>pf?VP00h<V=k74dAKC3wS4kP06,0*52
$GPVTG,337.63,T,,M,0.32,N,0.6,K,A*08
$GPGGA,084107.000,4926.7609,N,01100.4517,E,1,11,1.0,338.2,M,47.8,M,,0000*50
$GPGLL,4926.7609,N,01100.4517,E,084107.000,A,A*55
$GPGSA,A,3,21,18,27,19,15,30,16,04,07,22,11,,1.6,1.0,1.3*32
$GPRMC,084107.000,A,4926.7609,N,01100.4517,E,0.31,341.32,281114,,,A*68
!AIVDO,1,1,,,B>pf?VP00h<V=jW4dAWEGwSTkP06,0*3D
$GPVTG,341.32,T,,M,0.31,N,0.6,K,A*0E
!AIVDM,1,1,,B,1>O:wDNP000jHf4LBh=N4?wt1d00,0*7A
$GPGGA,084108.000,4926.7611,N,01100.4515,E,1,11,1.0,338.8,M,47.8,M,,0000*5E
$GPGLL,4926.7611,N,01100.4515,E,084108.000,A,A*51
$GPGSA,A,3,21,18,27,19,15,30,16,04,07,22,11,,1.6,1.0,1.3*32
$GPRMC,084108.000,A,4926.7611,N,01100.4515,E,0.30,13.60,281114,,,A*5E
!AIVDO,1,1,,,B>pf?VP00h<V=iW4dAd8SwT4kP06,0*03
$GPVTG,13.60,T,,M,0.30,N,0.6,K,A*3C
$GPGGA,084109.000,4926.7614,N,01100.4514,E,1,11,1.0,339.5,M,47.8,M,,0000*57
$GPGLL,4926.7614,N,01100.4514,E,084109.000,A,A*54
$GPGSA,A,3,21,18,27,19,15,30,16,04,07,22,11,,1.6,1.0,1.3*32
$GPRMC,084109.000,A,4926.7614,N,01100.4514,E,0.27,9.20,281114,,,A*62
!AIVDO,1,1,,,B>pf?VP00P<V=i74dAp5kwTTkP06,0*1A
$GPVTG,9.20,T,,M,0.27,N,0.5,K,A*06
$GPGGA,084110.000,4926.7617,N,01100.4512,E,1,11,1.0,340.1,M,47.8,M,,0000*50
$GPGLL,4926.7617,N,01100.4512,E,084110.000,A,A*59
$GPGSA,A,3,21,18,27,19,15,30,16,04,07,22,11,,1.6,1.0,1.3*32
$GPRMC,084110.000,A,4926.7617,N,01100.4512,E,0.33,341.27,281114,,,A*62
!AIVDO,1,1,,,B>pf?VP00h<V=h74dB7ECwU4kP06,0*5E
$GPVTG,341.27,T,,M,0.33,N,0.6,K,A*08
$GPGGA,084111.000,4926.7620,N,01100.4509,E,1,10,1.0,340.7,M,47.8,M,,0000*58
$GPGLL,4926.7620,N,01100.4509,E,084111.000,A,A*56
$GPGSA,A,3,21,18,27,19,15,30,16,04,22,11,,,1.7,1.0,1.3*34
$GPGSV,3,1,12,27,87,194,30,22,62,134,37,19,58,299,30,18,45,066,30*74
$GPGSV,3,2,12,16,35,197,27,04,26,257,17,21,24,073,36,11,13,270,24*73
