$GPRMC,035258,A,5013.4693,N,00346.6503,W,4.0,183.2,260711,3.8,W,A*18
$GPGLL,5013.4693,N,00346.6503,W,035258,A,A*52
$GPRMC,035300,A,5013.4672,N,00346.6504,W,3.6,185.2,260711,3.8,W,A*1B
$GPGLL,5013.4672,N,00346.6504,W,035300,A,A*56
$GPRMC,035302,A,5013.4651,N,00346.6506,W,3.8,186.7,260711,3.8,W,A*12
$GPGLL,5013.4651,N,00346.6506,W,035302,A,A*57
$GPRMC,035304,A,5013.4629,N,00346.6511,W,3.7,187.6,260711,3.8,W,A*12
$GPGLL,5013.4629,N,00346.6511,W,035304,A,A*58
$GPRMC,035306,A,5013.4608,N,00346.6514,W,3.7,186.0,260711,3.8,W,A*11
$GPGLL,5013.4608,N,00346.6514,W,035306,A,A*5C
$GPRMC,035308,A,5013.4586,N,00346.6517,W,4.0,186.1,260711,3.8,W,A*18
$GPGLL,5013.4586,N,00346.6517,W,035308,A,A*54
$GPRMC,035310,A,5013.4564,N,00346.6519,W,4.2,184.4,260711,3.8,W,A*16
$GPGLL,5013.4564,N,00346.6519,W,035310,A,A*5F
$GPRMC,035312,A,5013.4542,N,00346.6523,W,3.9,184.2,260711,3.8,W,A*13
!AIVDM,1,1,,B,1535SB002qOgEEhLTmHb;H8L0H7T,0*76
!AIVDM,1,1,,A,1535SB002qOgE@lLTmDJ;H6L087m,0*17
$GPGLL,5013.4542,N,00346.6523,W,035312,A,A*50
$GPRMC,035314,A,5013.4522,N,00346.6526,W,3.7,185.6,260711,3.8,W,A*1D
$GPGLL,5013.4522,N,00346.6526,W,035314,A,A*55
$GPRMC,035316,A,5013.4501,N,00346.6528,W,3.9,182.7,260711,3.8,W,A*18
$GPGLL,5013.4501,N,00346.6528,W,035316,A,A*58
$GPRMC,035318,A,5013.4479,N,00346.6529,W,4.2,182.7,260711,3.8,W,A*15
!AIVDM,1,1,,A,1535SB002qOgE72LTm<:;H8T0@;?,0*06
$GPGLL,5013.4479,N,00346.6529,W,035318,A,A*59
$GPRMC,035320,A,5013.4456,N,00346.6530,W,4.1,182.1,260711,3.8,W,A*1E
$GPGLL,5013.4456,N,00346.6530,W,035320,A,A*57
$GPRMC,035322,A,5013.4434,N,00346.6531,W,4.0,180.9,260711,3.8,W,A*12
$GPGLL,5013.4434,N,00346.6531,W,035322,A,A*50
$GPRMC,035324,A,5013.4414,N,00346.6532,W,3.6,182.3,260711,3.8,W,A*1C
$GPGLL,5013.4414,N,00346.6532,W,035324,A,A*57
!AIVDM,1,1,,B,1535SB002qOgDpBLTlwb;88h0H?4,0*6A
$GPRMC,035326,A,5013.4393,N,00346.6532,W,4.1,181.8,260711,3.8,W,A*1E
$GPGLL,5013.4393,N,00346.6532,W,035326,A,A*5D
$GPRMC,035328,A,5013.4370,N,00346.6533,W,4.3,181.5,260711,3.8,W,A*13
$GPGLL,5013.4370,N,00346.6533,W,035328,A,A*5F
$GPRMC,035330,A,5013.4348,N,00346.6533,W,3.7,181.4,260711,3.8,W,A*13
$GPGLL,5013.4348,N,00346.6533,W,035330,A,A*5D
$GPRMC,035332,A,5013.4328,N,00346.6534,W,3.4,180.2,260711,3.8,W,A*14
$GPGLL,5013.4328,N,00346.6534,W,035332,A,A*5E
$GPRMC,035334,A,5013.4309,N,00346.6534,W,3.7,181.1,260711,3.8,W,A*10
$GPGLL,5013.4309,N,00346.6534,W,035334,A,A*5B
$GPRMC,035336,A,5013.4288,N,00346.6535,W,3.9,182.9,260711,3.8,W,A*1E
$GPGLL,5013.4288,N,00346.6535,W,035336,A,A*50
!AIVDM,1,1,,A,1535SB002qOgDEtLTlRb;87<0L2M,0*64
$GPRMC,035338,A,5013.4267,N,00346.6537,W,3.7,181.2,260711,3.8,W,A*15
$GPGLL,5013.4267,N,00346.6537,W,035338,A,A*5D
$GPRMC,035340,A,5013.4247,N,00346.6537,W,3.5,180.2,260711,3.8,W,A*1B
$GPGLL,5013.4247,N,00346.6537,W,035340,A,A*50
$GPRMC,035342,A,5013.4229,N,00346.6538,W,3.5,182.1,260711,3.8,W,A*1F
!AIVDM,1,1,,A,1535SB002qOgD<8LTlJb;H9D00SE,0*5A
!AIVDM,1,1,,B,1535SB002qOgD9dLTlHr;H7H04KD,0*0D
$GPGLL,5013.4229,N,00346.6538,W,035342,A,A*55
$GPRMC,035344,A,5013.4209,N,00346.6540,W,3.7,184.3,260711,3.8,W,A*12
$GPGLL,5013.4209,N,00346.6540,W,035344,A,A*5E
$GPRMC,035346,A,5013.4187,N,00346.6543,W,3.9,184.8,260711,3.8,W,A*13
$GPGLL,5013.4187,N,00346.6543,W,035346,A,A*5A
$GPRMC,035348,A,5013.4167,N,00346.6545,W,3.5,181.6,260711,3.8,W,A*12
$GPGLL,5013.4167,N,00346.6545,W,035348,A,A*5C
$GPRMC,035350,A,5013.4149,N,00346.6547,W,3.3,180.8,260711,3.8,W,A*1C
$GPGLL,5013.4149,N,00346.6547,W,035350,A,A*5B
$GPRMC,035352,A,5013.4130,N,00346.6547,W,3.9,181.7,260711,3.8,W,A*14
$GPGLL,5013.4130,N,00346.6547,W,035352,A,A*57
$GPRMC,035354,A,5013.4109,N,00346.6548,W,4.2,179.7,260711,3.8,W,A*1C
$GPGLL,5013.4109,N,00346.6548,W,035354,A,A*54
!AIVDM,1,1,,B,1535SB002qOgCafLTkvb;87j0@Pt,0*74
$GPRMC,035356,A,5013.4087,N,00346.6548,W,3.9,180.7,260711,3.8,W,A*13
$GPGLL,5013.4087,N,00346.6548,W,035356,A,A*51
$GPRMC,035358,A,5013.4068,N,00346.6548,W,3.5,179.0,260711,3.8,W,A*11
$GPGLL,5013.4068,N,00346.6548,W,035358,A,A*5E
$GPRMC,035400,A,5013.4050,N,00346.6546,W,3.4,180.0,260711,3.8,W,A*19
$GPGLL,5013.4050,N,00346.6546,W,035400,A,A*51
!AIVDM,1,1,,B,1535SB002qOgCOrLTkn:;880080u,0*42
$GPRMC,035402,A,5013.4029,N,00346.6546,W,4.0,179.4,260711,3.8,W,A*14
$GPGLL,5013.4029,N,00346.6546,W,035402,A,A*5D
$GPRMC,035404,A,5013.4007,N,00346.6543,W,3.9,170.4,260711,3.8,W,A*1C
$GPGLL,5013.4007,N,00346.6543,W,035404,A,A*52
$GPRMC,035406,A,5013.3987,N,00346.6537,W,3.4,168.4,260711,3.8,W,A*1F
!AIVDM,1,1,,A,1535SB002qOgCA<LTkar;H8<0D<P,0*6F
$GPGLL,5013.3987,N,00346.6537,W,035406,A,A*55
$GPRMC,035408,A,5013.3970,N,00346.6533,W,3.4,174.0,260711,3.8,W,A*14
$GPGLL,5013.3970,N,00346.6533,W,035408,A,A*57
$GPRMC,035410,A,5013.3951,N,00346.6532,W,3.6,182.0,260711,3.8,W,A*14
 !AIVDM,1,1,,A,1>M46pvP1TP=fr0MhC027?wN0<00,0*45
!AIVDM,1,1,,B,1>M46pvP1TP=fr0MhC027?wN0<00,0*46
!AIVDM,1,1,,A,1>M46pvP1TP=fr0MhC027?wN0<00,0*45
!AIVDM,1,1,,B,1>M46pvP1TP=fr0MhC027?wN0<00,0*46
!AIVDM,1,1,,A,>>M46pi<59B04=@UHD,2*20
!AIVDM,1,1,,B,>>M46pi<59B04=@UHD,2*23
!AIVDM,1,1,,A,1>M46pvP1TP=fr0MhC027?wN0<00,0*45
!AIVDM,1,1,,B,1>M46pvP1TP=fr0MhC027?wN0<00,0*46
!AIVDM,1,1,,A,1>M4f1vP00Dd;bl<=50tH?wd08?E,0*52,d-106,S9999,r14xkaa1,1264100667
!AIVDM,1,1,,A,1>M4f1vP00Dd;bl<=50tH?wd08?E,0*52,d-106,S9999,r14xkaa1,1264100667
!AIVDM,1,1,,A,1>M4f1vP00Dd;bl<=50tH?wd08?E,0*52,d-106,S9999,r14xkaa1,1264100667
!AIVDM,1,1,,B,B3M@U<0007sd5NW;vLh03wU5oP06,0*48
$GPGLL,5013.3951,N,00346.6532,W,035410,A,A*5C
$GPRMC,035412,A,5013.3930,N,00346.6532,W,3.7,181.3,260711,3.8,W,A*10
!AIVDM,1,1,,B,1535SB002qOgC2JLTkMr;H8H0D<N,0*2F
!AIVDM,1,1,,A,1535SB002qOgBwtLTkKb;H8L04KH,0*45
$GPGLL,5013.3930,N,00346.6532,W,035412,A,A*59
$GPRMC,035414,A,5013.3910,N,00346.6532,W,3.8,180.5,260711,3.8,W,A*1C
$GPGLL,5013.3910,N,00346.6532,W,035414,A,A*5D
$GPRMC,035416,A,5013.3890,N,00346.6533,W,3.2,185.1,260711,3.8,W,A*1D
$GPGLL,5013.3890,N,00346.6533,W,035416,A,A*57
$GPRMC,035418,A,5013.3871,N,00346.6535,W,3.9,182.5,260711,3.8,W,A*12
!AIVDM,1,1,,A,1535SB002qOgBk`LTkA:;H8T0<<P,0*60
$GPGLL,5013.3871,N,00346.6535,W,035418,A,A*50
$GPRMC,035420,A,5013.3850,N,00346.6537,W,3.8,182.3,260711,3.8,W,A*1F
$GPGLL,5013.3850,N,00346.6537,W,035420,A,A*5A
$GPRMC,035422,A,5013.3829,N,00346.6539,W,3.7,180.7,260711,3.8,W,A*14
$GPGLL,5013.3829,N,00346.6539,W,035422,A,A*58
$GPRMC,035424,A,5013.3809,N,00346.6539,W,3.6,182.8,260711,3.8,W,A*1C
$GPGLL,5013.3809,N,00346.6539,W,035424,A,A*5C
!AIVDM,1,1,,B,1535SB002qOgBRHLTk2r;`8j0D<P,0*27
!AIVDM,1,1,,A,B3Ad>R0007sd?CW;s<dU?wdUkP06,0*24
$GPRMC,035426,A,5013.3790,N,00346.6543,W,3.6,185.1,260711,3.8,W,A*12
$GPGLL,5013.3790,N,00346.6543,W,035426,A,A*5C
$GPRMC,035428,A,5013.3770,N,00346.6544,W,3.7,187.9,260711,3.8,W,A*1E
$GPGLL,5013.3770,N,00346.6544,W,035428,A,A*5B
$GPRMC,035430,A,5013.3749,N,00346.6547,W,3.7,183.4,260711,3.8,W,A*17
!AIVDM,1,1,,A,1535SB002qOgBF8LTjpr;`8t0D<P,0*1D
$GPGLL,5013.3749,N,00346.6547,W,035430,A,A*5B
$GPRMC,035432,A,5013.3728,N,00346.6547,W,3.8,179.6,260711,3.8,W,A*1A
$GPGLL,5013.3728,N,00346.6547,W,035432,A,A*5E
$GPRMC,035434,A,5013.3708,N,00346.6546,W,3.2,177.7,260711,3.8,W,A*1A
$GPGLL,5013.3708,N,00346.6546,W,035434,A,A*5B
$GPRMC,035436,A,5013.3689,N,00346.6545,W,3.7,177.4,260711,3.8,W,A*15
$GPGLL,5013.3689,N,00346.6545,W,035436,A,A*52
!AIVDM,1,1,,B,1535SB002qOgB7FLTjd:;H9804KH,0*37
!AIVDM,1,1,,A,1535SB002qOgB2JLTjWb;87<0HF@,0*55
$GPRMC,035438,A,5013.3668,N,00346.6545,W,3.8,180.3,260711,3.8,W,A*14
$GPGLL,5013.3668,N,00346.6545,W,035438,A,A*53
$GPRMC,035440,A,5013.3647,N,00346.6545,W,3.7,180.2,260711,3.8,W,A*18
$GPGLL,5013.3647,N,00346.6545,W,035440,A,A*51
$GPRMC,035442,A,5013.3626,N,00346.6546,W,3.8,180.0,260711,3.8,W,A*13
!AIVDM,1,1,,A,1535SB002qOgAn6LTjLr;89F0HI?,0*79
!AIVDM,1,1,,B,1535SB002qOgAn6LTjLr;89H00S?,0*16
$GPGLL,5013.3626,N,00346.6546,W,035442,A,A*57
$GPRMC,035444,A,5013.3607,N,00346.6545,W,3.5,177.1,260711,3.8,W,A*11
$GPGLL,5013.3607,N,00346.6545,W,035444,A,A*51
$GPRMC,035446,A,5013.3586,N,00346.6543,W,3.7,179.7,260711,3.8,W,A*15
$GPGLL,5013.3586,N,00346.6543,W,035446,A,A*5F
$GPRMC,035448,A,5013.3566,N,00346.6543,W,3.8,179.5,260711,3.8,W,A*18
!AIVDM,1,1,,B,1535SB002qOgAWDLTj@:;H9R0<<P,0*7F
$GPGLL,5013.3566,N,00346.6543,W,035448,A,A*5F
!AIVDM,1,1,,A,1535SB002qOgATnLTj=r;H9T04KH,0*01
$GPRMC,035450,A,5013.3546,N,00346.6541,W,3.6,176.7,260711,3.8,W,A*12
$GPGLL,5013.3546,N,00346.6541,W,035450,A,A*56
$GPRMC,035452,A,5013.3527,N,00346.6539,W,3.5,180.4,260711,3.8,W,A*11
$GPGLL,5013.3527,N,00346.6539,W,035452,A,A*5C
$GPRMC,035454,A,5013.3507,N,00346.6540,W,3.6,182.6,260711,3.8,W,A*18
$GPGLL,5013.3507,N,00346.6540,W,035454,A,A*56
!AIVDM,1,1,,B,1535SB002qOgAF4LTj1J;`7j0<2Q,0*0E
$GPRMC,035456,A,5013.3487,N,00346.6543,W,3.5,186.6,260711,3.8,W,A*17
$GPGLL,5013.3487,N,00346.6543,W,035456,A,A*5E
$GPRMC,035458,A,5013.3467,N,00346.6548,W,3.9,189.6,260711,3.8,W,A*1F
$GPGLL,5013.3467,N,00346.6548,W,035458,A,A*55
$GPRMC,035500,A,5013.3447,N,00346.6553,W,3.5,187.2,260711,3.8,W,A*1D
$GPGLL,5013.3447,N,00346.6553,W,035500,A,A*51
$GPRMC,035502,A,5013.3429,N,00346.6557,W,3.5,188.7,260711,3.8,W,A*19
$GPGLL,5013.3429,N,00346.6557,W,035502,A,A*5F
$GPRMC,035504,A,5013.3410,N,00346.6561,W,3.8,188.2,260711,3.8,W,A*18
$GPGLL,5013.3410,N,00346.6561,W,035504,A,A*56
$GPRMC,035506,A,5013.3390,N,00346.6565,W,3.5,188.7,260711,3.8,W,A*19
$GPGLL,5013.3390,N,00346.6565,W,035506,A,A*5F
$GPRMC,035508,A,5013.3371,N,00346.6569,W,3.5,189.6,260711,3.8,W,A*14
$GPGLL,5013.3371,N,00346.6569,W,035508,A,A*52
$GPRMC,035510,A,5013.3352,N,00346.6573,W,3.5,189.7,260711,3.8,W,A*16
$GPGLL,5013.3352,N,00346.6573,W,035510,A,A*51
$GPRMC,035512,A,5013.3332,N,00346.6579,W,3.7,192.2,260711,3.8,W,A*15
!AIVDM,1,1,,B,1535SB002qOg@fhLTiOb;`8H0@7T,0*77
$GPGLL,5013.3332,N,00346.6579,W,035512,A,A*5F
!AIVDM,1,1,,A,1535SB002qOg@alLTiK:;`6L00S7,0*56
$GPRMC,035514,A,5013.3313,N,00346.6584,W,3.5,187.5,260711,3.8,W,A*13
$GPGLL,5013.3313,N,00346.6584,W,035514,A,A*58
$GPRMC,035516,A,5013.3294,N,00346.6588,W,3.7,188.6,260711,3.8,W,A*1D
$GPGLL,5013.3294,N,00346.6588,W,035516,A,A*58
$GPRMC,035518,A,5013.3274,N,00346.6593,W,3.4,188.7,260711,3.8,W,A*15
!AIVDM,1,1,,A,1535SB002qOg@MVLTi@b;H8V08;?,0*47
$GPGLL,5013.3274,N,00346.6593,W,035518,A,A*52
$GPRMC,035520,A,5013.3255,N,00346.6596,W,3.7,188.2,260711,3.8,W,A*1E
$GPGLL,5013.3255,N,00346.6596,W,035520,A,A*5F
$GPRMC,035522,A,5013.3235,N,00346.6601,W,3.7,189.8,260711,3.8,W,A*1C
$GPGLL,5013.3235,N,00346.6601,W,035522,A,A*56
$GPRMC,035524,A,5013.3215,N,00346.6605,W,3.7,187.5,260711,3.8,W,A*1F
$GPGLL,5013.3215,N,00346.6605,W,035524,A,A*56
!AIVDM,1,1,,B,1535SB002qOg@>rLTi4J;H8j0@?4,0*04
$GPRMC,035526,A,5013.3195,N,00346.6609,W,3.6,185.3,260711,3.8,W,A*1F
$GPGLL,5013.3195,N,00346.6609,W,035526,A,A*53
$GPRMC,035528,A,5013.3175,N,00346.6612,W,3.5,187.4,260711,3.8,W,A*13
$GPGLL,5013.3175,N,00346.6612,W,035528,A,A*59
$GPRMC,035530,A,5013.3156,N,00346.6615,W,3.5,186.6,260711,3.8,W,A*1F
$GPGLL,5013.3156,N,00346.6615,W,035530,A,A*56
$GPRMC,035532,A,5013.3136,N,00346.6619,W,3.8,186.1,260711,3.8,W,A*1D
$GPGLL,5013.3136,N,00346.6619,W,035532,A,A*5E
$GPRMC,035534,A,5013.3116,N,00346.6623,W,3.6,187.1,260711,3.8,W,A*1F
$GPGLL,5013.3116,N,00346.6623,W,035534,A,A*53
$GPRMC,035536,A,5013.3097,N,00346.6627,W,3.7,188.2,260711,3.8,W,A*1C
$GPGLL,5013.3097,N,00346.6627,W,035536,A,A*5D
!AIVDM,1,1,,B,1535SB002qOg?l2LTheb;`9800S@,0*02
$GPRMC,035538,A,5013.3076,N,00346.6630,W,3.8,186.6,260711,3.8,W,A*1E
$GPGLL,5013.3076,N,00346.6630,W,035538,A,A*5A
$GPRMC,035540,A,5013.3055,N,00346.6634,W,3.8,185.0,260711,3.8,W,A*11
$GPGLL,5013.3055,N,00346.6634,W,035540,A,A*50
$GPRMC,035542,A,5013.3035,N,00346.6636,W,3.8,184.8,260711,3.8,W,A*1E
$GPGLL,5013.3035,N,00346.6636,W,035542,A,A*56
$GPRMC,035544,A,5013.3015,N,00346.6638,W,3.5,186.0,260711,3.8,W,A*13
$GPGLL,5013.3015,N,00346.6638,W,035544,A,A*5C
$GPRMC,035546,A,5013.2995,N,00346.6640,W,3.8,182.9,260711,3.8,W,A*1E
$GPGLL,5013.2995,N,00346.6640,W,035546,A,A*51
$GPRMC,035548,A,5013.2974,N,00346.6642,W,3.7,184.2,260711,3.8,W,A*1F
!AIVDM,1,1,,B,1535SB002qOg?F8LTh@J;p9P08Lg,0*67
!AIVDM,2,1,0,B,5535SB02=2T=L@?KO?I0PTh4@Di0PT60EQ18E==7H0lK561`0J,0*0B
!AIVDM,2,2,0,B,0j0DS1Dm3k`8888888880,2*42
$GPGLL,5013.2974,N,00346.6642,W,035548,A,A*52
!AIVDM,1,1,,A,1535SB002qOg?A@LTh;r;`7T00S?,0*0D
$GPRMC,035550,A,5013.2953,N,00346.6643,W,3.6,184.6,260711,3.8,W,A*17
$GPGLL,5013.2953,N,00346.6643,W,035550,A,A*5F
$GPRMC,035552,A,5013.2934,N,00346.6643,W,3.2,184.3,260711,3.8,W,A*15
$GPGLL,5013.2934,N,00346.6643,W,035552,A,A*5C
$GPRMC,035554,A,5013.2913,N,00346.6643,W,4.1,180.4,260711,3.8,W,A*11
$GPGLL,5013.2913,N,00346.6643,W,035554,A,A*5F
!AIVDM,1,1,,A,1535SB002qOg?7LLTh2r;`9d00Rj,0*14
$GPRMC,035556,A,5013.2893,N,00346.6644,W,3.5,181.1,260711,3.8,W,A*1A
$GPGLL,5013.2893,N,00346.6644,W,035556,A,A*53
$GPRMC,035558,A,5013.2875,N,00346.6644,W,3.4,180.3,260711,3.8,W,A*1E
$GPGLL,5013.2875,N,00346.6644,W,035558,A,A*55
$GPRMC,035600,A,5013.2855,N,00346.6645,W,3.5,180.8,260711,3.8,W,A*19
$GPGLL,5013.2855,N,00346.6645,W,035600,A,A*58
!AIVDM,1,1,,B,1535SB002qOg>n@LTgkJ;H8200Rh,0*50
$GPRMC,035602,A,5013.2836,N,00346.6644,W,3.7,178.2,260711,3.8,W,A*10
$GPGLL,5013.2836,N,00346.6644,W,035602,A,A*5E
$GPRMC,035604,A,5013.2817,N,00346.6644,W,3.4,183.5,260711,3.8,W,A*15
$GPGLL,5013.2817,N,00346.6644,W,035604,A,A*5B
$GPRMC,035606,A,5013.2798,N,00346.6643,W,3.7,180.3,260711,3.8,W,A*1E
!AIVDM,1,1,,A,1535SB002qOg>b0LTga:;H8<0<<P,0*01
$GPGLL,5013.2798,N,00346.6643,W,035606,A,A*56
$GPRMC,035608,A,5013.2778,N,00346.6643,W,3.6,179.5,260711,3.8,W,A*1F
$GPGLL,5013.2778,N,00346.6643,W,035608,A,A*56
$GPRMC,035610,A,5013.2758,N,00346.6642,W,3.6,177.0,260711,3.8,W,A*1E
$GPGLL,5013.2758,N,00346.6642,W,035610,A,A*5C
$GPRMC,035612,A,5013.2737,N,00346.6641,W,3.6,178.8,260711,3.8,W,A*11
!AIVDM,1,1,,B,1535SB002qOg>KDLTgL:;`8H0<<P,0*2E
$GPGLL,5013.2737,N,00346.6641,W,035612,A,A*54
$GPRMC,035614,A,5013.2718,N,00346.6640,W,3.5,179.5,260711,3.8,W,A*14
$GPGLL,5013.2718,N,00346.6640,W,035614,A,A*5E
$GPRMC,035616,A,5013.2698,N,00346.6640,W,3.6,180.6,260711,3.8,W,A*19
$GPGLL,5013.2698,N,00346.6640,W,035616,A,A*55
$GPRMC,035618,A,5013.2678,N,00346.6640,W,3.5,183.4,260711,3.8,W,A*1B
$GPGLL,5013.2678,N,00346.6640,W,035618,A,A*55
$GPRMC,035620,A,5013.2658,N,00346.6643,W,3.7,185.2,260711,3.8,W,A*13
$GPGLL,5013.2658,N,00346.6643,W,035620,A,A*5F
$GPRMC,035622,A,5013.2638,N,00346.6645,W,3.7,184.9,260711,3.8,W,A*1B
$GPGLL,5013.2638,N,00346.6645,W,035622,A,A*5D
$GPRMC,035624,A,5013.2619,N,00346.6648,W,3.5,184.1,260711,3.8,W,A*19
$GPGLL,5013.2619,N,00346.6648,W,035624,A,A*55
!AIVDM,1,1,,B,1535SB002qOg=vHLTg6J;H8h0<<N,0*00
$GPRMC,035626,A,5013.2599,N,00346.6650,W,4.0,184.3,260711,3.8,W,A*19
$GPGLL,5013.2599,N,00346.6650,W,035626,A,A*55
!AIVDM,1,1,,B,H3M@U<0Dll60`4pD00000000000,2*1A
$GPRMC,035628,A,5013.2576,N,00346.6653,W,3.8,182.8,260711,3.8,W,A*17
$GPGLL,5013.2576,N,00346.6653,W,035628,A,A*59
!AIVDM,1,1,,B,H3M@U<4N3?=1B00=<>7l001@8330,0*1F
$GPRMC,035630,A,5013.2556,N,00346.6657,W,3.4,186.3,260711,3.8,W,A*1B
!AIVDM,1,1,,A,1535SB002qOg=g`LTfpr;H8t0<<P,0*47
$GPGLL,5013.2556,N,00346.6657,W,035630,A,A*56
$GPRMC,035632,A,5013.2537,N,00346.6659,W,3.5,185.4,260711,3.8,W,A*15
$GPGLL,5013.2537,N,00346.6659,W,035632,A,A*5D
$GPRMC,035634,A,5013.2516,N,00346.6663,W,3.8,186.1,260711,3.8,W,A*12
$GPGLL,5013.2516,N,00346.6663,W,035634,A,A*51
$GPRMC,035636,A,5013.2495,N,00346.6667,W,3.8,183.6,260711,3.8,W,A*1C
$GPGLL,5013.2495,N,00346.6667,W,035636,A,A*5D
!AIVDM,1,1,,B,1535SB002qOg=NNLTfa:;H9:0HF2,0*39
$GPRMC,035638,A,5013.2475,N,00346.6670,W,3.5,185.8,260711,3.8,W,A*1F
$GPGLL,5013.2475,N,00346.6670,W,035638,A,A*5B
$GPRMC,035640,A,5013.2456,N,00346.6670,W,3.4,181.0,260711,3.8,W,A*1C
$GPGLL,5013.2456,N,00346.6670,W,035640,A,A*55
$GPRMC,035642,A,5013.2435,N,00346.6670,W,3.9,181.1,260711,3.8,W,A*17
!AIVDM,1,1,,A,1535SB002qOg=BFLTfOJ;H9D0@I?,0*14
$GPGLL,5013.2435,N,00346.6670,W,035642,A,A*52
!AIVDM,1,1,,B,1535SB002qOg=?rLTfMJ;`9H0<2Q,0*11
$GPRMC,035644,A,5013.2414,N,00346.6670,W,3.8,182.0,260711,3.8,W,A*11
$GPGLL,5013.2414,N,00346.6670,W,035644,A,A*57
$GPRMC,035646,A,5013.2394,N,00346.6671,W,3.6,184.6,260711,3.8,W,A*13
!AIVDM,1,1,,B,1535SB002qOg=3dLTfCJ;p9P04KP,0*7D
!AIVDM,1,1,,A,1535SB002qOg=1>LTfAb;p9T0L2Q,0*08
$GPGLL,5013.2394,N,00346.6671,W,035646,A,A*5B
$GPRMC,035648,A,5013.2374,N,00346.6673,W,3.5,182.0,260711,3.8,W,A*12
$GPGLL,5013.2374,N,00346.6673,W,035648,A,A*59
$GPRMC,035650,A,5013.2354,N,00346.6674,W,3.7,180.1,260711,3.8,W,A*1F
$GPGLL,5013.2354,N,00346.6674,W,035650,A,A*55
!AIVDM,1,1,,A,B3P7dah007sd87W;v=L03wqUoP06,0*70
$GPRMC,035652,A,5013.2335,N,00346.6674,W,3.4,180.8,260711,3.8,W,A*10
$GPGLL,5013.2335,N,00346.6674,W,035652,A,A*50
$GPRMC,035654,A,5013.2314,N,00346.6672,W,4.1,176.1,260711,3.8,W,A*11
!AIVDM,1,1,,A,1535SB002qOg<m0LTf7b;p9d0D<P,0*1A
$GPGLL,5013.2314,N,00346.6672,W,035654,A,A*53
$GPRMC,035656,A,5013.2293,N,00346.6670,W,3.5,177.4,260711,3.8,W,A*18
$GPGLL,5013.2293,N,00346.6670,W,035656,A,A*5D
$GPRMC,035658,A,5013.2275,N,00346.6668,W,3.6,181.3,260711,3.8,W,A*1A
$GPGLL,5013.2275,N,00346.6668,W,035658,A,A*52
$GPRMC,035700,A,5013.2255,N,00346.6667,W,3.4,176.0,260711,3.8,W,A*12
$GPGLL,5013.2255,N,00346.6667,W,035700,A,A*53
$GPRMC,035702,A,5013.2236,N,00346.6665,W,3.7,177.6,260711,3.8,W,A*13
$GPGLL,5013.2236,N,00346.6665,W,035702,A,A*56
$GPRMC,035704,A,5013.2216,N,00346.6663,W,3.6,176.7,260711,3.8,W,A*10
$GPGLL,5013.2216,N,00346.6663,W,035704,A,A*54
$GPRMC,035706,A,5013.2197,N,00346.6662,W,3.6,175.3,260711,3.8,W,A*1E
$GPGLL,5013.2197,N,00346.6662,W,035706,A,A*5D
$GPRMC,035708,A,5013.2178,N,00346.6661,W,3.3,175.9,260711,3.8,W,A*1D
$GPGLL,5013.2178,N,00346.6661,W,035708,A,A*51
$GPRMC,035710,A,5013.2160,N,00346.6659,W,3.5,173.8,260711,3.8,W,A*17
$GPGLL,5013.2160,N,00346.6659,W,035710,A,A*5A
!AIVDM,1,1,,A,B3M@U<0007sd5OW;vM@03wUUoP06,0*03
$GPRMC,035712,A,5013.2139,N,00346.6654,W,3.9,170.5,260711,3.8,W,A*16
$GPGLL,5013.2139,N,00346.6654,W,035712,A,A*59
$GPRMC,035714,A,5013.2118,N,00346.6650,W,3.7,173.5,260711,3.8,W,A*1A
$GPGLL,5013.2118,N,00346.6650,W,035714,A,A*58
$GPRMC,035716,A,5013.2099,N,00346.6647,W,3.3,173.6,260711,3.8,W,A*11
$GPGLL,5013.2099,N,00346.6647,W,035716,A,A*54
$GPRMC,035718,A,5013.2081,N,00346.6643,W,3.5,173.6,260711,3.8,W,A*14
$GPGLL,5013.2081,N,00346.6643,W,035718,A,A*57
$GPRMC,035720,A,5013.2063,N,00346.6639,W,3.5,171.2,260711,3.8,W,A*18
$GPGLL,5013.2063,N,00346.6639,W,035720,A,A*5D
$GPRMC,035722,A,5013.2044,N,00346.6634,W,3.8,168.5,260711,3.8,W,A*10
$GPGLL,5013.2044,N,00346.6634,W,035722,A,A*57
$GPRMC,035724,A,5013.2023,N,00346.6628,W,3.8,169.1,260711,3.8,W,A*1F
!AIVDM,1,1,,B,H3Ad>R1=Dq8U<D0000000000000,2*09
!AIVDM,1,1,,A,1535SB002qOg;VdLTe5b<H6j08>f,0*05
$GPGLL,5013.2023,N,00346.6628,W,035724,A,A*5D
!AIVDM,1,1,,B,B3Ad>R0007sd?K7;s<k?;wd5kP06,0*4E
$GPRMC,035726,A,5013.2005,N,00346.6623,W,2.8,166.3,260711,3.8,W,A*1E
!AIVDM,1,1,,B,H3Ad>R4U71B=9>0H@oiln0186400,0*0F
$GPGLL,5013.2005,N,00346.6623,W,035726,A,A*50
$GPRMC,035728,A,5013.1987,N,00346.6616,W,3.7,168.0,260711,3.8,W,A*15
$GPGLL,5013.1987,N,00346.6616,W,035728,A,A*58
$GPRMC,035730,A,5013.1967,N,00346.6609,W,3.5,167.0,260711,3.8,W,A*11
!AIVDM,1,1,,A,1535SB002qOg;LvLTdu:<88t08Ap,0*1D
$GPGLL,5013.1967,N,00346.6609,W,035730,A,A*51
$GPRMC,035732,A,5013.1947,N,00346.6601,W,4.0,164.4,260711,3.8,W,A*1C
$GPGLL,5013.1947,N,00346.6601,W,035732,A,A*59
$GPRMC,035734,A,5013.1928,N,00346.6593,W,3.3,163.9,260711,3.8,W,A*15
$GPGLL,5013.1928,N,00346.6593,W,035734,A,A*5E
$GPRMC,035736,A,5013.1912,N,00346.6583,W,3.0,160.4,260711,3.8,W,A*12
$GPGLL,5013.1912,N,00346.6583,W,035736,A,A*54
$GPRMC,035738,A,5013.1895,N,00346.6574,W,3.7,158.6,260711,3.8,W,A*14
$GPGLL,5013.1895,N,00346.6574,W,035738,A,A*5C
$GPRMC,035740,A,5013.1875,N,00346.6564,W,3.9,161.0,260711,3.8,W,A*16
$GPGLL,5013.1875,N,00346.6564,W,035740,A,A*5C
$GPRMC,035742,A,5013.1855,N,00346.6553,W,3.5,159.5,260711,3.8,W,A*10
!AIVDM,1,1,,A,1535SB002qOg:w`LTdT:;H9D0<<P,0*0F
$GPGLL,5013.1855,N,00346.6553,W,035742,A,A*58
$GPRMC,035744,A,5013.1837,N,00346.6543,W,3.3,157.7,260711,3.8,W,A*19
!AIVDM,1,1,,B,H3P7dai0Dr0Lh5>22220=8488E8,2*32
!AIVDM,1,1,,B,H3P7dalNC5<5H00=:35l001@9330,0*3C
$GPGLL,5013.1837,N,00346.6543,W,035744,A,A*5B
$GPRMC,035746,A,5013.1820,N,00346.6532,W,3.5,156.6,260711,3.8,W,A*1D
$GPGLL,5013.1820,N,00346.6532,W,035746,A,A*59
$GPRMC,035748,A,5013.1802,N,00346.6519,W,3.4,155.9,260711,3.8,W,A*17
$GPGLL,5013.1802,N,00346.6519,W,035748,A,A*5E
$GPRMC,035750,A,5013.1784,N,00346.6507,W,3.6,160.4,260711,3.8,W,A*19
$GPGLL,5013.1784,N,00346.6507,W,035750,A,A*59
$GPRMC,035752,A,5013.1766,N,00346.6496,W,3.8,159.2,260711,3.8,W,A*1C
$GPGLL,5013.1766,N,00346.6496,W,035752,A,A*5E
$GPRMC,035754,A,5013.1747,N,00346.6486,W,3.6,161.4,260711,3.8,W,A*1B
$GPGLL,5013.1747,N,00346.6486,W,035754,A,A*5A
$GPRMC,035756,A,5013.1730,N,00346.6476,W,3.3,158.9,260711,3.8,W,A*14
$GPGLL,5013.1730,N,00346.6476,W,035756,A,A*57
$GPRMC,035758,A,5013.1712,N,00346.6466,W,3.7,161.9,260711,3.8,W,A*15
$GPGLL,5013.1712,N,00346.6466,W,035758,A,A*58
$GPRMC,035800,A,5013.1693,N,00346.6457,W,3.9,168.2,260711,3.8,W,A*11
$GPGLL,5013.1693,N,00346.6457,W,035800,A,A*50
$GPRMC,035802,A,5013.1672,N,00346.6449,W,3.8,167.4,260711,3.8,W,A*1B
$GPGLL,5013.1672,N,00346.6449,W,035802,A,A*52
$GPRMC,035804,A,5013.1653,N,00346.6442,W,3.1,170.9,260711,3.8,W,A*17
$GPGLL,5013.1653,N,00346.6442,W,035804,A,A*5C
$GPRMC,035806,A,5013.1636,N,00346.6437,W,3.4,171.7,260711,3.8,W,A*1E
!AIVDM,1,1,,A,1535SB002qOg:50LTcjr;p8<04K`,0*62
$GPGLL,5013.1636,N,00346.6437,W,035806,A,A*5F
$GPRMC,035808,A,5013.1616,N,00346.6432,W,3.9,177.5,260711,3.8,W,A*1E
$GPGLL,5013.1616,N,00346.6432,W,035808,A,A*56
$GPRMC,035810,A,5013.1593,N,00346.6429,W,4.1,173.9,260711,3.8,W,A*14
$GPGLL,5013.1593,N,00346.6429,W,035810,A,A*5B
$GPRMC,035812,A,5013.1573,N,00346.6426,W,3.5,180.5,260711,3.8,W,A*14
!AIVDM,1,1,,B,1535SB002qOg9nFLTcVr;p8H04K`,0*07
$GPGLL,5013.1573,N,00346.6426,W,035812,A,A*58
$GPRMC,035814,A,5013.1555,N,00346.6425,W,3.2,180.1,260711,3.8,W,A*16
$GPGLL,5013.1555,N,00346.6425,W,035814,A,A*59
$GPRMC,035816,A,5013.1536,N,00346.6425,W,3.8,174.6,260711,3.8,W,A*17
$GPGLL,5013.1536,N,00346.6425,W,035816,A,A*5E
$GPRMC,035818,A,5013.1516,N,00346.6423,W,3.5,179.3,260711,3.8,W,A*18
$GPGLL,5013.1516,N,00346.6423,W,035818,A,A*54
$GPRMC,035820,A,5013.1495,N,00346.6421,W,3.7,178.2,260711,3.8,W,A*19
$GPGLL,5013.1495,N,00346.6421,W,035820,A,A*57
$GPRMC,035822,A,5013.1475,N,00346.6420,W,3.4,180.4,260711,3.8,W,A*16
$GPGLL,5013.1475,N,00346.6420,W,035822,A,A*5A
$GPRMC,035824,A,5013.1458,N,00346.6421,W,3.1,185.6,260711,3.8,W,A*1C
$GPGLL,5013.1458,N,00346.6421,W,035824,A,A*52
$GPRMC,035826,A,5013.1439,N,00346.6422,W,3.9,179.2,260711,3.8,W,A*15
$GPGLL,5013.1439,N,00346.6422,W,035826,A,A*54
$GPRMC,035828,A,5013.1418,N,00346.6422,W,3.7,179.3,260711,3.8,W,A*17
$GPGLL,5013.1418,N,00346.6422,W,035828,A,A*59
$GPRMC,035830,A,5013.1399,N,00346.6423,W,3.4,185.0,260711,3.8,W,A*12
!AIVDM,1,1,,A,1535SB002qOg9:BLTc1:;p8t04K`,0*47
$GPGLL,5013.1399,N,00346.6423,W,035830,A,A*5F
$GPRMC,035832,A,5013.1380,N,00346.6424,W,3.3,184.4,260711,3.8,W,A*1D
$GPGLL,5013.1380,N,00346.6424,W,035832,A,A*52
$GPRMC,035834,A,5013.1362,N,00346.6425,W,3.3,181.1,260711,3.8,W,A*16
$GPGLL,5013.1362,N,00346.6425,W,035834,A,A*59
$GPRMC,035836,A,5013.1342,N,00346.6423,W,3.9,178.4,260711,3.8,W,A*19
$GPGLL,5013.1342,N,00346.6423,W,035836,A,A*5F
$GPRMC,035838,A,5013.1321,N,00346.6422,W,3.8,178.9,260711,3.8,W,A*1F
$GPGLL,5013.1321,N,00346.6422,W,035838,A,A*55
$GPRMC,035840,A,5013.1302,N,00346.6420,W,3.1,178.2,260711,3.8,W,A*11
$GPGLL,5013.1302,N,00346.6420,W,035840,A,A*59
$GPRMC,035842,A,5013.1284,N,00346.6420,W,3.6,179.7,260711,3.8,W,A*1F
!AIVDM,1,1,,A,1535SB002qOg8dnLTb`:;p9D08I?,0*04
$GPGLL,5013.1284,N,00346.6420,W,035842,A,A*54
$GPRMC,035844,A,5013.1264,N,00346.6420,W,3.3,178.7,260711,3.8,W,A*13
$GPGLL,5013.1264,N,00346.6420,W,035844,A,A*5C
$GPRMC,035846,A,5013.1246,N,00346.6420,W,3.6,178.0,260711,3.8,W,A*13
$GPGLL,5013.1246,N,00346.6420,W,035846,A,A*5E
$GPRMC,035848,A,5013.1226,N,00346.6419,W,3.6,177.1,260711,3.8,W,A*1F
$GPGLL,5013.1226,N,00346.6419,W,035848,A,A*5C
$GPRMC,035850,A,5013.1206,N,00346.6418,W,3.6,176.7,260711,3.8,W,A*12
$GPGLL,5013.1206,N,00346.6418,W,035850,A,A*56
$GPRMC,035852,A,5013.1186,N,00346.6418,W,3.7,178.1,260711,3.8,W,A*12
$GPGLL,5013.1186,N,00346.6418,W,035852,A,A*5F
$GPRMC,035854,A,5013.1166,N,00346.6418,W,3.4,177.8,260711,3.8,W,A*1F
$GPGLL,5013.1166,N,00346.6418,W,035854,A,A*57
$GPRMC,035856,A,5013.1146,N,00346.6417,W,3.7,177.6,260711,3.8,W,A*1D
$GPGLL,5013.1146,N,00346.6417,W,035856,A,A*58
$GPRMC,035858,A,5013.1126,N,00346.6415,W,3.6,175.3,260711,3.8,W,A*11
$GPGLL,5013.1126,N,00346.6415,W,035858,A,A*52
$GPRMC,035900,A,5013.1106,N,00346.6413,W,3.4,177.1,260711,3.8,W,A*1B
$GPGLL,5013.1106,N,00346.6413,W,035900,A,A*5A
$GPRMC,035902,A,5013.1087,N,00346.6412,W,3.5,177.1,260711,3.8,W,A*11
$GPGLL,5013.1087,N,00346.6412,W,035902,A,A*51
$GPRMC,035904,A,5013.1068,N,00346.6410,W,3.3,177.7,260711,3.8,W,A*14
$GPGLL,5013.1068,N,00346.6410,W,035904,A,A*54
$GPRMC,035906,A,5013.1049,N,00346.6407,W,3.6,173.7,260711,3.8,W,A*12
$GPGLL,5013.1049,N,00346.6407,W,035906,A,A*53
$GPRMC,035908,A,5013.1029,N,00346.6404,W,3.5,175.6,260711,3.8,W,A*1D
$GPGLL,5013.1029,N,00346.6404,W,035908,A,A*58
$GPRMC,035910,A,5013.1010,N,00346.6401,W,3.3,174.2,260711,3.8,W,A*18
$GPGLL,5013.1010,N,00346.6401,W,035910,A,A*5E
$GPRMC,035912,A,5013.0992,N,00346.6398,W,3.5,171.0,260711,3.8,W,A*1E
$GPGLL,5013.0992,N,00346.6398,W,035912,A,A*59
$GPRMC,035914,A,5013.0975,N,00346.6393,W,3.4,167.8,260711,3.8,W,A*14
$GPGLL,5013.0975,N,00346.6393,W,035914,A,A*5D
$GPRMC,035916,A,5013.0957,N,00346.6385,W,3.5,167.3,260711,3.8,W,A*1B
$GPGLL,5013.0957,N,00346.6385,W,035916,A,A*58
$GPRMC,035918,A,5013.0939,N,00346.6377,W,3.5,163.4,260711,3.8,W,A*13
!AIVDM,1,1,,A,1535SB002qOg7DFLTaJr<H8T0D<P,0*2A
$GPGLL,5013.0939,N,00346.6377,W,035918,A,A*53
$GPRMC,035920,A,5013.0920,N,00346.6370,W,3.4,166.3,260711,3.8,W,A*14
$GPGLL,5013.0920,N,00346.6370,W,035920,A,A*57
$GPRMC,035922,A,5013.0901,N,00346.6362,W,3.5,165.9,260711,3.8,W,A*1E
$GPGLL,5013.0901,N,00346.6362,W,035922,A,A*55
$GPRMC,035924,A,5013.0883,N,00346.6355,W,3.3,165.6,260711,3.8,W,A*1E
$GPGLL,5013.0883,N,00346.6355,W,035924,A,A*5C
$GPRMC,035926,A,5013.0865,N,00346.6349,W,3.4,164.5,260711,3.8,W,A*1C
$GPGLL,5013.0865,N,00346.6349,W,035926,A,A*5B
$GPRMC,035928,A,5013.0848,N,00346.6340,W,3.0,162.0,260711,3.8,W,A*13
$GPGLL,5013.0848,N,00346.6340,W,035928,A,A*53
$GPRMC,035930,A,5013.0829,N,00346.6332,W,3.9,162.8,260711,3.8,W,A*19
!AIVDM,1,1,,A,1535SB002qOg6o0LTa1J<`8t00SK,0*3D
$GPGLL,5013.0829,N,00346.6332,W,035930,A,A*58
$GPRMC,035932,A,5013.0810,N,00346.6323,W,3.3,160.3,260711,3.8,W,A*12
$GPGLL,5013.0810,N,00346.6323,W,035932,A,A*50
$GPRMC,035934,A,5013.0792,N,00346.6314,W,3.3,162.8,260711,3.8,W,A*1C
$GPGLL,5013.0792,N,00346.6314,W,035934,A,A*57
$GPRMC,035936,A,5013.0772,N,00346.6306,W,3.5,160.4,260711,3.8,W,A*1B
$GPGLL,5013.0772,N,00346.6306,W,035936,A,A*58
$GPRMC,035938,A,5013.0755,N,00346.6297,W,3.4,162.1,260711,3.8,W,A*1F
$GPGLL,5013.0755,N,00346.6297,W,035938,A,A*5A
$GPRMC,035940,A,5013.0736,N,00346.6288,W,3.5,166.0,260711,3.8,W,A*1F
$GPGLL,5013.0736,N,00346.6288,W,035940,A,A*5E
$GPRMC,035942,A,5013.0718,N,00346.6280,W,3.2,162.2,260711,3.8,W,A*18
$GPGLL,5013.0718,N,00346.6280,W,035942,A,A*58
$GPRMC,035944,A,5013.0700,N,00346.6271,W,3.6,166.4,260711,3.8,W,A*1F
$GPGLL,5013.0700,N,00346.6271,W,035944,A,A*59
$GPRMC,035946,A,5013.0681,N,00346.6263,W,3.1,168.3,260711,3.8,W,A*18
$GPGLL,5013.0681,N,00346.6263,W,035946,A,A*50
$GPRMC,035948,A,5013.0664,N,00346.6257,W,3.4,167.4,260711,3.8,W,A*17
$GPGLL,5013.0664,N,00346.6257,W,035948,A,A*52
$GPRMC,035950,A,5013.0645,N,00346.6252,W,3.7,172.4,260711,3.8,W,A*1F
$GPGLL,5013.0645,N,00346.6252,W,035950,A,A*5D
$GPRMC,035952,A,5013.0627,N,00346.6245,W,3.1,164.0,260711,3.8,W,A*1A
$GPGLL,5013.0627,N,00346.6245,W,035952,A,A*5D
$GPRMC,035954,A,5013.0609,N,00346.6238,W,3.6,167.7,260711,3.8,W,A*19
$GPGLL,5013.0609,N,00346.6238,W,035954,A,A*5D
$GPRMC,035956,A,5013.0590,N,00346.6231,W,3.4,166.3,260711,3.8,W,A*16
$GPGLL,5013.0590,N,00346.6231,W,035956,A,A*55
$GPRMC,035958,A,5013.0572,N,00346.6225,W,3.1,166.3,260711,3.8,W,A*14
$GPGLL,5013.0572,N,00346.6225,W,035958,A,A*52
$GPRMC,040000,A,5013.0555,N,00346.6218,W,3.7,167.9,260711,3.8,W,A*14
$GPGLL,5013.0555,N,00346.6218,W,040000,A,A*5F
$GPRMC,040002,A,5013.0537,N,00346.6212,W,3.5,168.6,260711,3.8,W,A*1A
$GPGLL,5013.0537,N,00346.6212,W,040002,A,A*53
$GPRMC,040004,A,5013.0518,N,00346.6207,W,3.5,168.3,260711,3.8,W,A*10
$GPGLL,5013.0518,N,00346.6207,W,040004,A,A*5C
$GPRMC,040006,A,5013.0499,N,00346.6202,W,3.3,169.6,260711,3.8,W,A*1D
$GPGLL,5013.0499,N,00346.6202,W,040006,A,A*53
$GPRMC,040008,A,5013.0482,N,00346.6198,W,3.3,174.0,260711,3.8,W,A*13
$GPGLL,5013.0482,N,00346.6198,W,040008,A,A*57
$GPRMC,040010,A,5013.0462,N,00346.6192,W,3.8,172.0,260711,3.8,W,A*13
$GPGLL,5013.0462,N,00346.6192,W,040010,A,A*5A
!AIVDM,1,1,,B,B3M@U<0007sd5S7;vMD03wUUoP06,0*78
$GPRMC,040012,A,5013.0442,N,00346.6185,W,3.3,167.0,260711,3.8,W,A*1A
$GPGLL,5013.0442,N,00346.6185,W,040012,A,A*5C
$GPRMC,040014,A,5013.0424,N,00346.6179,W,3.4,162.9,260711,3.8,W,A*14
$GPGLL,5013.0424,N,00346.6179,W,040014,A,A*59
$GPRMC,040016,A,5013.0405,N,00346.6170,W,3.6,162.9,260711,3.8,W,A*1E
$GPGLL,5013.0405,N,00346.6170,W,040016,A,A*51
$GPRMC,040018,A,5013.0387,N,00346.6160,W,3.3,163.7,260711,3.8,W,A*16
$GPGLL,5013.0387,N,00346.6160,W,040018,A,A*53
$GPRMC,040020,A,5013.0368,N,00346.6151,W,3.5,165.5,260711,3.8,W,A*1C
$GPGLL,5013.0368,N,00346.6151,W,040020,A,A*5B
$GPRMC,040022,A,5013.0350,N,00346.6142,W,3.5,159.7,260711,3.8,W,A*1A
$GPGLL,5013.0350,N,00346.6142,W,040022,A,A*50
$GPRMC,040024,A,5013.0333,N,00346.6132,W,3.1,160.2,260711,3.8,W,A*15
!AIVDM,1,1,,A,B3Ad>R0007sd?N7;s<w3?wd5kP06,0*5C
$GPGLL,5013.0333,N,00346.6132,W,040024,A,A*54
$GPRMC,040026,A,5013.0315,N,00346.6123,W,3.5,160.6,260711,3.8,W,A*13
$GPGLL,5013.0315,N,00346.6123,W,040026,A,A*52
$GPRMC,040028,A,5013.0297,N,00346.6111,W,3.4,159.1,260711,3.8,W,A*1B
$GPGLL,5013.0297,N,00346.6111,W,040028,A,A*56
$GPRMC,040030,A,5013.0281,N,00346.6101,W,3.2,157.3,260711,3.8,W,A*1E
$GPGLL,5013.0281,N,00346.6101,W,040030,A,A*59
$GPRMC,040032,A,5013.0264,N,00346.6090,W,3.2,155.0,260711,3.8,W,A*1F
$GPGLL,5013.0264,N,00346.6090,W,040032,A,A*59
$GPRMC,040034,A,5013.0247,N,00346.6079,W,3.4,158.9,260711,3.8,W,A*1D
$GPGLL,5013.0247,N,00346.6079,W,040034,A,A*59
$GPRMC,040036,A,5013.0230,N,00346.6069,W,3.4,163.5,260711,3.8,W,A*1A
$GPGLL,5013.0230,N,00346.6069,W,040036,A,A*5A
$GPRMC,040038,A,5013.0212,N,00346.6060,W,3.2,163.4,260711,3.8,W,A*1A
$GPGLL,5013.0212,N,00346.6060,W,040038,A,A*5D
$GPRMC,040040,A,5013.0196,N,00346.6054,W,3.2,166.6,260711,3.8,W,A*1A
$GPGLL,5013.0196,N,00346.6054,W,040040,A,A*5A
$GPRMC,040042,A,5013.0178,N,00346.6048,W,3.4,167.4,260711,3.8,W,A*10
$GPGLL,5013.0178,N,00346.6048,W,040042,A,A*55
$GPRMC,040044,A,5013.0160,N,00346.6040,W,3.3,166.3,260711,3.8,W,A*16
$GPGLL,5013.0160,N,00346.6040,W,040044,A,A*52
$GPRMC,040046,A,5013.0142,N,00346.6034,W,3.4,165.2,260711,3.8,W,A*12
$GPGLL,5013.0142,N,00346.6034,W,040046,A,A*53
$GPRMC,040048,A,5013.0124,N,00346.6027,W,3.3,168.5,260711,3.8,W,A*13
$GPGLL,5013.0124,N,00346.6027,W,040048,A,A*5F
$GPRMC,040050,A,5013.0107,N,00346.6019,W,3.3,166.9,260711,3.8,W,A*14
$GPGLL,5013.0107,N,00346.6019,W,040050,A,A*5A
$GPRMC,040052,A,5013.0089,N,00346.6012,W,3.4,165.9,260711,3.8,W,A*1E
$GPGLL,5013.0089,N,00346.6012,W,040052,A,A*54
$GPRMC,040054,A,5013.0071,N,00346.6004,W,3.4,163.6,260711,3.8,W,A*11
$GPGLL,5013.0071,N,00346.6004,W,040054,A,A*52
$GPRMC,040056,A,5013.0053,N,00346.5995,W,3.4,164.1,260711,3.8,W,A*11
$GPGLL,5013.0053,N,00346.5995,W,040056,A,A*52
$GPRMC,040058,A,5013.0035,N,00346.5988,W,3.4,164.7,260711,3.8,W,A*15
$GPGLL,5013.0035,N,00346.5988,W,040058,A,A*50
$GPRMC,040100,A,5013.0018,N,00346.5979,W,3.1,158.4,260711,3.8,W,A*11
$GPGLL,5013.0018,N,00346.5979,W,040100,A,A*5D
$GPRMC,040102,A,5013.0000,N,00346.5970,W,3.5,163.8,260711,3.8,W,A*13
$GPGLL,5013.0000,N,00346.5970,W,040102,A,A*5F
$GPRMC,040104,A,5012.9981,N,00346.5959,W,3.2,166.3,260711,3.8,W,A*1F
$GPGLL,5012.9981,N,00346.5959,W,040104,A,A*5A
$GPRMC,040106,A,5012.9963,N,00346.5951,W,3.3,160.7,260711,3.8,W,A*1A
$GPGLL,5012.9963,N,00346.5951,W,040106,A,A*5C
$GPRMC,040108,A,5012.9946,N,00346.5942,W,3.2,161.0,260711,3.8,W,A*16
$GPGLL,5012.9946,N,00346.5942,W,040108,A,A*57
$GPRMC,040110,A,5012.9929,N,00346.5934,W,3.1,165.8,260711,3.8,W,A*18
$GPGLL,5012.9929,N,00346.5934,W,040110,A,A*56
$GPRMC,040112,A,5012.9912,N,00346.5927,W,3.2,162.1,260711,3.8,W,A*1D
$GPGLL,5012.9912,N,00346.5927,W,040112,A,A*5E
$GPRMC,040114,A,5012.9895,N,00346.5920,W,3.3,163.8,260711,3.8,W,A*1B
$GPGLL,5012.9895,N,00346.5920,W,040114,A,A*51
$GPRMC,040116,A,5012.9877,N,00346.5913,W,3.3,164.8,260711,3.8,W,A*12
$GPGLL,5012.9877,N,00346.5913,W,040116,A,A*5F
$GPRMC,040118,A,5012.9860,N,00346.5906,W,3.2,164.2,260711,3.8,W,A*15
$GPGLL,5012.9860,N,00346.5906,W,040118,A,A*53
$GPRMC,040120,A,5012.9843,N,00346.5899,W,3.3,163.5,260711,3.8,W,A*19
$GPGLL,5012.9843,N,00346.5899,W,040120,A,A*5E
$GPRMC,040122,A,5012.9825,N,00346.5891,W,3.5,165.4,260711,3.8,W,A*12
$GPGLL,5012.9825,N,00346.5891,W,040122,A,A*54
$GPRMC,040124,A,5012.9807,N,00346.5883,W,3.4,168.7,260711,3.8,W,A*18
$GPGLL,5012.9807,N,00346.5883,W,040124,A,A*51
$GPRMC,040126,A,5012.9791,N,00346.5877,W,3.1,167.3,260711,3.8,W,A*1F
$GPGLL,5012.9791,N,00346.5877,W,040126,A,A*58
$GPRMC,040128,A,5012.9774,N,00346.5871,W,3.1,168.7,260711,3.8,W,A*17
$GPGLL,5012.9774,N,00346.5871,W,040128,A,A*5B
$GPRMC,040130,A,5012.9757,N,00346.5868,W,3.4,172.2,260711,3.8,W,A*1C
$GPGLL,5012.9757,N,00346.5868,W,040130,A,A*5B
$GPRMC,040132,A,5012.9738,N,00346.5863,W,3.3,169.6,260711,3.8,W,A*15
$GPGLL,5012.9738,N,00346.5863,W,040132,A,A*5B
$GPRMC,040134,A,5012.9719,N,00346.5857,W,3.4,173.4,260711,3.8,W,A*19
$GPGLL,5012.9719,N,00346.5857,W,040134,A,A*59
$GPRMC,040136,A,5012.9701,N,00346.5855,W,3.1,174.4,260711,3.8,W,A*12
$GPGLL,5012.9701,N,00346.5855,W,040136,A,A*50
$GPRMC,040138,A,5012.9683,N,00346.5853,W,3.4,173.6,260711,3.8,W,A*11
$GPGLL,5012.9683,N,00346.5853,W,040138,A,A*53
$GPRMC,040140,A,5012.9665,N,00346.5850,W,3.3,171.4,260711,3.8,W,A*12
$GPGLL,5012.9665,N,00346.5850,W,040140,A,A*57
$GPRMC,040142,A,5012.9647,N,00346.5846,W,3.3,174.1,260711,3.8,W,A*17
$GPGLL,5012.9647,N,00346.5846,W,040142,A,A*52
$GPRMC,040144,A,5012.9629,N,00346.5844,W,3.3,175.0,260711,3.8,W,A*1B
$GPGLL,5012.9629,N,00346.5844,W,040144,A,A*5E
$GPRMC,040146,A,5012.9610,N,00346.5841,W,3.5,171.4,260711,3.8,W,A*10
$GPGLL,5012.9610,N,00346.5841,W,040146,A,A*53
$GPRMC,040148,A,5012.9592,N,00346.5837,W,3.2,173.2,260711,3.8,W,A*15
$GPGLL,5012.9592,N,00346.5837,W,040148,A,A*55
$GPRMC,040150,A,5012.9574,N,00346.5833,W,3.4,172.2,260711,3.8,W,A*17
$GPGLL,5012.9574,N,00346.5833,W,040150,A,A*50
$GPRMC,040152,A,5012.9555,N,00346.5830,W,3.4,174.7,260711,3.8,W,A*16
$GPGLL,5012.9555,N,00346.5830,W,040152,A,A*52
$GPRMC,040154,A,5012.9537,N,00346.5827,W,3.1,174.0,260711,3.8,W,A*10
$GPGLL,5012.9537,N,00346.5827,W,040154,A,A*56
$GPRMC,040156,A,5012.9520,N,00346.5822,W,3.0,166.2,260711,3.8,W,A*11
$GPGLL,5012.9520,N,00346.5822,W,040156,A,A*57
$GPRMC,040158,A,5012.9503,N,00346.5819,W,3.1,171.5,260711,3.8,W,A*16
$GPGLL,5012.9503,N,00346.5819,W,040158,A,A*50
$GPRMC,040200,A,5012.9485,N,00346.5815,W,3.3,174.1,260711,3.8,W,A*18
$GPGLL,5012.9485,N,00346.5815,W,040200,A,A*5D
$GPRMC,040202,A,5012.9467,N,00346.5812,W,3.3,175.4,260711,3.8,W,A*15
$GPGLL,5012.9467,N,00346.5812,W,040202,A,A*54
$GPRMC,040204,A,5012.9448,N,00346.5808,W,3.4,175.8,260711,3.8,W,A*1E
$GPGLL,5012.9448,N,00346.5808,W,040204,A,A*54
$GPRMC,040206,A,5012.9430,N,00346.5804,W,3.2,172.2,260711,3.8,W,A*14
$GPGLL,5012.9430,N,00346.5804,W,040206,A,A*55
$GPRMC,040208,A,5012.9412,N,00346.5800,W,3.3,171.7,260711,3.8,W,A*19
$GPGLL,5012.9412,N,00346.5800,W,040208,A,A*5F
$GPRMC,040210,A,5012.9394,N,00346.5795,W,3.2,171.0,260711,3.8,W,A*1C
$GPGLL,5012.9394,N,00346.5795,W,040210,A,A*5C
$GPRMC,040212,A,5012.9377,N,00346.5791,W,3.5,172.5,260711,3.8,W,A*16
$GPGLL,5012.9377,N,00346.5791,W,040212,A,A*57
$GPRMC,040214,A,5012.9358,N,00346.5787,W,3.3,171.9,260711,3.8,W,A*13
$GPGLL,5012.9358,N,00346.5787,W,040214,A,A*5B
$GPRMC,040216,A,5012.9341,N,00346.5782,W,2.9,168.3,260711,3.8,W,A*15
$GPGLL,5012.9341,N,00346.5782,W,040216,A,A*54
$GPRMC,040218,A,5012.9325,N,00346.5777,W,3.3,169.5,260711,3.8,W,A*1F
$GPGLL,5012.9325,N,00346.5777,W,040218,A,A*52
$GPRMC,040220,A,5012.9307,N,00346.5772,W,3.4,174.7,260711,3.8,W,A*18
$GPGLL,5012.9307,N,00346.5772,W,040220,A,A*5C
$GPRMC,040222,A,5012.9288,N,00346.5767,W,3.1,171.0,260711,3.8,W,A*1F
$GPGLL,5012.9288,N,00346.5767,W,040222,A,A*5C
$GPRMC,040224,A,5012.9270,N,00346.5762,W,3.3,172.7,260711,3.8,W,A*1D
$GPGLL,5012.9270,N,00346.5762,W,040224,A,A*58
$GPRMC,040226,A,5012.9252,N,00346.5759,W,3.1,173.8,260711,3.8,W,A*1B
$GPGLL,5012.9252,N,00346.5759,W,040226,A,A*52
$GPRMC,040228,A,5012.9234,N,00346.5757,W,3.1,176.3,260711,3.8,W,A*15
$GPGLL,5012.9234,N,00346.5757,W,040228,A,A*52
!AIVDM,1,1,,A,H3M@U<0Dll60`4pD00000000000,2*19
!AIVDM,1,1,,A,H3M@U<4N3?=1B00=<>7l001@8330,0*1C
$GPRMC,040230,A,5012.9216,N,00346.5754,W,3.4,173.9,260711,3.8,W,A*15
$GPGLL,5012.9216,N,00346.5754,W,040230,A,A*58
$GPRMC,040232,A,5012.9197,N,00346.5752,W,3.3,174.5,260711,3.8,W,A*17
$GPGLL,5012.9197,N,00346.5752,W,040232,A,A*56
$GPRMC,040234,A,5012.9179,N,00346.5748,W,3.2,171.8,260711,3.8,W,A*13
$GPGLL,5012.9179,N,00346.5748,W,040234,A,A*5B
$GPRMC,040236,A,5012.9161,N,00346.5742,W,3.5,164.6,260711,3.8,W,A*1F
$GPGLL,5012.9161,N,00346.5742,W,040236,A,A*5A
$GPRMC,040238,A,5012.9144,N,00346.5733,W,2.9,160.4,260711,3.8,W,A*1B
$GPGLL,5012.9144,N,00346.5733,W,040238,A,A*55
$GPRMC,040240,A,5012.9127,N,00346.5725,W,3.2,159.6,260711,3.8,W,A*14
$GPGLL,5012.9127,N,00346.5725,W,040240,A,A*58
$GPRMC,040242,A,5012.9110,N,00346.5714,W,3.5,158.7,260711,3.8,W,A*17
$GPGLL,5012.9110,N,00346.5714,W,040242,A,A*5C
$GPRMC,040244,A,5012.9092,N,00346.5700,W,3.4,146.8,260711,3.8,W,A*1E
$GPGLL,5012.9092,N,00346.5700,W,040244,A,A*54
$GPRMC,040246,A,5012.9079,N,00346.5684,W,3.1,142.3,260711,3.8,W,A*1E
$GPGLL,5012.9079,N,00346.5684,W,040246,A,A*5E
$GPRMC,040248,A,5012.9067,N,00346.5666,W,3.0,138.8,260711,3.8,W,A*14
$GPGLL,5012.9067,N,00346.5666,W,040248,A,A*53
$GPRMC,040250,A,5012.9054,N,00346.5650,W,3.0,139.2,260711,3.8,W,A*13
$GPGLL,5012.9054,N,00346.5650,W,040250,A,A*5F
$GPRMC,040252,A,5012.9042,N,00346.5633,W,3.0,138.3,260711,3.8,W,A*13
$GPGLL,5012.9042,N,00346.5633,W,040252,A,A*5F
$GPRMC,040254,A,5012.9030,N,00346.5615,W,2.8,140.6,260711,3.8,W,A*17
!AIVDM,1,1,,A,B3P7dah007sd84W;v=403ws5oP06,0*69
$GPGLL,5012.9030,N,00346.5615,W,040254,A,A*58
$GPRMC,040256,A,5012.9016,N,00346.5600,W,3.0,145.0,260711,3.8,W,A*1F
$GPGLL,5012.9016,N,00346.5600,W,040256,A,A*5A
$GPRMC,040258,A,5012.9002,N,00346.5587,W,3.0,159.3,260711,3.8,W,A*16
$GPGLL,5012.9002,N,00346.5587,W,040258,A,A*5D
$GPRMC,040300,A,5012.8985,N,00346.5576,W,3.2,160.1,260711,3.8,W,A*19
$GPGLL,5012.8985,N,00346.5576,W,040300,A,A*58
$GPRMC,040302,A,5012.8969,N,00346.5567,W,3.1,158.2,260711,3.8,W,A*12
$GPGLL,5012.8969,N,00346.5567,W,040302,A,A*58
$GPRMC,040304,A,5012.8954,N,00346.5556,W,3.3,157.5,260711,3.8,W,A*12
$GPGLL,5012.8954,N,00346.5556,W,040304,A,A*52
$GPRMC,040306,A,5012.8939,N,00346.5543,W,3.1,152.0,260711,3.8,W,A*1D
$GPGLL,5012.8939,N,00346.5543,W,040306,A,A*5F
$GPRMC,040308,A,5012.8925,N,00346.5527,W,3.2,126.9,260711,3.8,W,A*15
$GPGLL,5012.8925,N,00346.5527,W,040308,A,A*5E
$GPRMC,040310,A,5012.8913,N,00346.5509,W,3.1,141.2,260711,3.8,W,A*1C
$GPGLL,5012.8913,N,00346.5509,W,040310,A,A*5E
$GPRMC,040312,A,5012.8900,N,00346.5492,W,3.1,138.7,260711,3.8,W,A*14
$GPGLL,5012.8900,N,00346.5492,W,040312,A,A*5D
$GPRMC,040314,A,5012.8887,N,00346.5473,W,3.0,137.5,260711,3.8,W,A*1F
$GPGLL,5012.8887,N,00346.5473,W,040314,A,A*5A
$GPRMC,040316,A,5012.8875,N,00346.5456,W,3.1,137.4,260711,3.8,W,A*17
$GPGLL,5012.8875,N,00346.5456,W,040316,A,A*52
$GPRMC,040318,A,5012.8862,N,00346.5440,W,3.1,140.4,260711,3.8,W,A*18
$GPGLL,5012.8862,N,00346.5440,W,040318,A,A*5D
$GPRMC,040320,A,5012.8849,N,00346.5423,W,3.2,143.3,260711,3.8,W,A*18
$GPGLL,5012.8849,N,00346.5423,W,040320,A,A*5A
$GPRMC,040322,A,5012.8837,N,00346.5404,W,3.0,128.3,260711,3.8,W,A*19
$GPGLL,5012.8837,N,00346.5404,W,040322,A,A*54
$GPRMC,040324,A,5012.8826,N,00346.5385,W,3.0,127.0,260711,3.8,W,A*1D
!AIVDM,1,1,,A,H3Ad>R1=Dq8U<D0000000000000,2*0A
!AIVDM,1,1,,B,B3Ad>R0007sd?G7;s<k:?wd5kP06,0*43
$GPGLL,5012.8826,N,00346.5385,W,040324,A,A*5C
!AIVDM,1,1,,A,H3Ad>R4U71B=9>0H@oiln0186400,0*0C
$GPRMC,040326,A,5012.8815,N,00346.5365,W,3.0,134.1,260711,3.8,W,A*12
$GPGLL,5012.8815,N,00346.5365,W,040326,A,A*50
$GPRMC,040328,A,5012.8804,N,00346.5345,W,3.1,141.9,260711,3.8,W,A*15
$GPGLL,5012.8804,N,00346.5345,W,040328,A,A*5C
$GPRMC,040330,A,5012.8791,N,00346.5327,W,3.0,132.4,260711,3.8,W,A*13
!AIVDM,1,1,,A,1535SB002rOfu`pLTQHJ>H:t04P<,0*22
$GPGLL,5012.8791,N,00346.5327,W,040330,A,A*52
$GPRMC,040332,A,5012.8781,N,00346.5308,W,3.0,128.0,260711,3.8,W,A*12
$GPGLL,5012.8781,N,00346.5308,W,040332,A,A*5C
$GPRMC,040334,A,5012.8770,N,00346.5287,W,3.1,135.5,260711,3.8,W,A*14
$GPGLL,5012.8770,N,00346.5287,W,040334,A,A*52
$GPRMC,040336,A,5012.8758,N,00346.5267,W,3.1,129.5,260711,3.8,W,A*1F
$GPGLL,5012.8758,N,00346.5267,W,040336,A,A*54
$GPRMC,040338,A,5012.8747,N,00346.5248,W,3.0,132.5,260711,3.8,W,A*19
$GPGLL,5012.8747,N,00346.5248,W,040338,A,A*59
$GPRMC,040340,A,5012.8737,N,00346.5227,W,3.1,127.2,260711,3.8,W,A*1A
$GPGLL,5012.8737,N,00346.5227,W,040340,A,A*58
$GPRMC,040342,A,5012.8724,N,00346.5208,W,3.2,143.9,260711,3.8,W,A*1D
$GPGLL,5012.8724,N,00346.5208,W,040342,A,A*55
$GPRMC,040344,A,5012.8713,N,00346.5189,W,2.9,136.3,260711,3.8,W,A*17
$GPGLL,5012.8713,N,00346.5189,W,040344,A,A*5D
$GPRMC,040346,A,5012.8701,N,00346.5170,W,3.0,133.9,260711,3.8,W,A*17
$GPGLL,5012.8701,N,00346.5170,W,040346,A,A*5A
!AIVDM,1,1,,A,H3P7dai0Dr0Lh5>22220=8488E8,2*31
$GPRMC,040348,A,5012.8689,N,00346.5152,W,3.2,135.6,260711,3.8,W,A*13
!AIVDM,1,1,,A,H3P7dalNC5<5H00=:35l001@9330,0*3F
$GPGLL,5012.8689,N,00346.5152,W,040348,A,A*55
$GPRMC,040350,A,5012.8678,N,00346.5133,W,2.7,134.2,260711,3.8,W,A*12
$GPGLL,5012.8678,N,00346.5133,W,040350,A,A*55
$GPRMC,040352,A,5012.8667,N,00346.5114,W,3.0,127.3,260711,3.8,W,A*1E
$GPGLL,5012.8667,N,00346.5114,W,040352,A,A*5C
$GPRMC,040354,A,5012.8654,N,00346.5098,W,3.1,144.7,260711,3.8,W,A*1D
$GPGLL,5012.8654,N,00346.5098,W,040354,A,A*5F
$GPRMC,040356,A,5012.8642,N,00346.5080,W,3.0,134.9,260711,3.8,W,A*19
$GPGLL,5012.8642,N,00346.5080,W,040356,A,A*53
$GPRMC,040358,A,5012.8630,N,00346.5063,W,3.1,139.5,260711,3.8,W,A*1F
$GPGLL,5012.8630,N,00346.5063,W,040358,A,A*55
$GPRMC,040400,A,5012.8618,N,00346.5045,W,2.8,132.6,260711,3.8,W,A*1B
$GPGLL,5012.8618,N,00346.5045,W,040400,A,A*51
$GPRMC,040402,A,5012.8608,N,00346.5026,W,2.7,133.5,260711,3.8,W,A*10
$GPGLL,5012.8608,N,00346.5026,W,040402,A,A*57
$GPRMC,040404,A,5012.8598,N,00346.5008,W,2.7,135.3,260711,3.8,W,A*10
$GPGLL,5012.8598,N,00346.5008,W,040404,A,A*57
$GPRMC,040406,A,5012.8586,N,00346.4992,W,2.9,134.2,260711,3.8,W,A*18
$GPGLL,5012.8586,N,00346.4992,W,040406,A,A*51
$GPRMC,040408,A,5012.8574,N,00346.4974,W,3.0,137.6,260711,3.8,W,A*1C
$GPGLL,5012.8574,N,00346.4974,W,040408,A,A*5A
$GPRMC,040410,A,5012.8562,N,00346.4958,W,2.8,134.4,260711,3.8,W,A*14
$GPGLL,5012.8562,N,00346.4958,W,040410,A,A*5A
$GPRMC,040412,A,5012.8553,N,00346.4939,W,2.7,132.7,260711,3.8,W,A*19
$GPGLL,5012.8553,N,00346.4939,W,040412,A,A*5D
$GPRMC,040414,A,5012.8542,N,00346.4923,W,2.9,133.1,260711,3.8,W,A*1D
$GPGLL,5012.8542,N,00346.4923,W,040414,A,A*50
$GPRMC,040416,A,5012.8531,N,00346.4905,W,2.9,131.1,260711,3.8,W,A*1D
$GPGLL,5012.8531,N,00346.4905,W,040416,A,A*52
$GPRMC,040418,A,5012.8521,N,00346.4885,W,2.9,140.2,260711,3.8,W,A*1E
$GPGLL,5012.8521,N,00346.4885,W,040418,A,A*54
$GPRMC,040420,A,5012.8510,N,00346.4866,W,3.0,129.8,260711,3.8,W,A*17
$GPGLL,5012.8510,N,00346.4866,W,040420,A,A*50
$GPRMC,040422,A,5012.8501,N,00346.4846,W,2.8,127.7,260711,3.8,W,A*1F
$GPGLL,5012.8501,N,00346.4846,W,040422,A,A*50
$GPRMC,040424,A,5012.8492,N,00346.4826,W,2.7,123.3,260711,3.8,W,A*1B
$GPGLL,5012.8492,N,00346.4826,W,040424,A,A*5B
$GPRMC,040426,A,5012.8485,N,00346.4805,W,2.5,126.0,260711,3.8,W,A*1A
$GPGLL,5012.8485,N,00346.4805,W,040426,A,A*5E
$GPRMC,040428,A,5012.8476,N,00346.4785,W,2.8,123.8,260711,3.8,W,A*1F
$GPGLL,5012.8476,N,00346.4785,W,040428,A,A*5B
$GPRMC,040430,A,5012.8467,N,00346.4766,W,2.9,128.8,260711,3.8,W,A*11
$GPGLL,5012.8467,N,00346.4766,W,040430,A,A*5F
$GPRMC,040432,A,5012.8458,N,00346.4745,W,2.7,124.4,260711,3.8,W,A*10
$GPGLL,5012.8458,N,00346.4745,W,040432,A,A*50
$GPRMC,040434,A,5012.8450,N,00346.4726,W,2.6,115.4,260711,3.8,W,A*18
$GPGLL,5012.8450,N,00346.4726,W,040434,A,A*5B
$GPRMC,040436,A,5012.8443,N,00346.4705,W,2.7,121.0,260711,3.8,W,A*1B
$GPGLL,5012.8443,N,00346.4705,W,040436,A,A*5A
$GPRMC,040438,A,5012.8435,N,00346.4685,W,2.7,118.7,260711,3.8,W,A*10
$GPGLL,5012.8435,N,00346.4685,W,040438,A,A*5C
$GPRMC,040440,A,5012.8426,N,00346.4666,W,2.7,128.8,260711,3.8,W,A*1C
$GPGLL,5012.8426,N,00346.4666,W,040440,A,A*5C
$GPRMC,040442,A,5012.8418,N,00346.4645,W,2.9,117.5,260711,3.8,W,A*1D
$GPGLL,5012.8418,N,00346.4645,W,040442,A,A*52
$GPRMC,040444,A,5012.8411,N,00346.4623,W,2.6,119.0,260711,3.8,W,A*16
$GPGLL,5012.8411,N,00346.4623,W,040444,A,A*5D
$GPRMC,040446,A,5012.8404,N,00346.4601,W,2.7,116.0,260711,3.8,W,A*1E
$GPGLL,5012.8404,N,00346.4601,W,040446,A,A*5B
$GPRMC,040448,A,5012.8396,N,00346.4581,W,2.9,120.5,260711,3.8,W,A*19
$GPGLL,5012.8396,N,00346.4581,W,040448,A,A*52
$GPRMC,040450,A,5012.8388,N,00346.4560,W,2.8,120.5,260711,3.8,W,A*11
$GPGLL,5012.8388,N,00346.4560,W,040450,A,A*5B
$GPRMC,040452,A,5012.8380,N,00346.4540,W,2.7,130.3,260711,3.8,W,A*11
$GPGLL,5012.8380,N,00346.4540,W,040452,A,A*53
$GPRMC,040454,A,5012.8372,N,00346.4521,W,2.4,118.7,260711,3.8,W,A*10
$GPGLL,5012.8372,N,00346.4521,W,040454,A,A*5F
$GPRMC,040456,A,5012.8365,N,00346.4501,W,2.8,120.9,260711,3.8,W,A*1F
$GPGLL,5012.8365,N,00346.4501,W,040456,A,A*59
$GPRMC,040458,A,5012.8356,N,00346.4481,W,3.0,124.1,260711,3.8,W,A*1D
$GPGLL,5012.8356,N,00346.4481,W,040458,A,A*5E
$GPRMC,040500,A,5012.8347,N,00346.4459,W,2.7,125.6,260711,3.8,W,A*14
$GPGLL,5012.8347,N,00346.4459,W,040500,A,A*57
$GPRMC,040502,A,5012.8338,N,00346.4439,W,2.8,123.2,260711,3.8,W,A*15
$GPGLL,5012.8338,N,00346.4439,W,040502,A,A*5B
$GPRMC,040504,A,5012.8330,N,00346.4420,W,2.8,127.3,260711,3.8,W,A*16
$GPGLL,5012.8330,N,00346.4420,W,040504,A,A*5D
$GPRMC,040506,A,5012.8321,N,00346.4402,W,2.6,128.9,260711,3.8,W,A*1F
$GPGLL,5012.8321,N,00346.4402,W,040506,A,A*5F
$GPRMC,040508,A,5012.8313,N,00346.4382,W,2.7,122.1,260711,3.8,W,A*1C
$GPGLL,5012.8313,N,00346.4382,W,040508,A,A*5F
$GPRMC,040510,A,5012.8303,N,00346.4363,W,2.8,128.3,260711,3.8,W,A*1C
$GPGLL,5012.8303,N,00346.4363,W,040510,A,A*58
$GPRMC,040512,A,5012.8295,N,00346.4342,W,2.6,124.6,260711,3.8,W,A*14
$GPGLL,5012.8295,N,00346.4342,W,040512,A,A*57
$GPRMC,040514,A,5012.8286,N,00346.4321,W,2.9,123.4,260711,3.8,W,A*1F
$GPGLL,5012.8286,N,00346.4321,W,040514,A,A*56
$GPRMC,040516,A,5012.8276,N,00346.4303,W,2.9,137.6,260711,3.8,W,A*15
$GPGLL,5012.8276,N,00346.4303,W,040516,A,A*5B
$GPRMC,040518,A,5012.8266,N,00346.4283,W,2.9,120.5,260711,3.8,W,A*16
$GPGLL,5012.8266,N,00346.4283,W,040518,A,A*5D
$GPRMC,040520,A,5012.8257,N,00346.4264,W,2.8,133.6,260711,3.8,W,A*16
$GPGLL,5012.8257,N,00346.4264,W,040520,A,A*5D
$GPRMC,040522,A,5012.8248,N,00346.4244,W,2.8,121.7,260711,3.8,W,A*1A
$GPGLL,5012.8248,N,00346.4244,W,040522,A,A*53
$GPRMC,040524,A,5012.8238,N,00346.4224,W,3.0,124.7,260711,3.8,W,A*11
$GPGLL,5012.8238,N,00346.4224,W,040524,A,A*54
$GPRMC,040526,A,5012.8230,N,00346.4201,W,2.7,126.0,260711,3.8,W,A*1F
$GPGLL,5012.8230,N,00346.4201,W,040526,A,A*59
$GPRMC,040528,A,5012.8220,N,00346.4182,W,2.9,126.8,260711,3.8,W,A*1E
$GPGLL,5012.8220,N,00346.4182,W,040528,A,A*5E
$GPRMC,040530,A,5012.8211,N,00346.4161,W,2.9,115.3,260711,3.8,W,A*13
$GPGLL,5012.8211,N,00346.4161,W,040530,A,A*58
$GPRMC,040532,A,5012.8204,N,00346.4141,W,2.7,131.3,260711,3.8,W,A*1F
$GPGLL,5012.8204,N,00346.4141,W,040532,A,A*5C
$GPRMC,040534,A,5012.8195,N,00346.4122,W,2.8,132.6,260711,3.8,W,A*1E
$GPGLL,5012.8195,N,00346.4122,W,040534,A,A*54
$GPRMC,040536,A,5012.8184,N,00346.4104,W,2.8,127.8,260711,3.8,W,A*12
$GPGLL,5012.8184,N,00346.4104,W,040536,A,A*52
$GPRMC,040538,A,5012.8174,N,00346.4087,W,2.9,133.9,260711,3.8,W,A*1C
$GPGLL,5012.8174,N,00346.4087,W,040538,A,A*59
$GPRMC,040540,A,5012.8163,N,00346.4071,W,2.9,133.0,260711,3.8,W,A*15
$GPGLL,5012.8163,N,00346.4071,W,040540,A,A*59
$GPRMC,040542,A,5012.8150,N,00346.4054,W,3.1,134.0,260711,3.8,W,A*1E
$GPGLL,5012.8150,N,00346.4054,W,040542,A,A*5C
$GPRMC,040544,A,5012.8139,N,00346.4037,W,2.8,145.4,260711,3.8,W,A*18
$GPGLL,5012.8139,N,00346.4037,W,040544,A,A*50
$GPRMC,040546,A,5012.8126,N,00346.4020,W,2.9,136.0,260711,3.8,W,A*13
$GPGLL,5012.8126,N,00346.4020,W,040546,A,A*5A
$GPRMC,040548,A,5012.8115,N,00346.4003,W,2.8,138.8,260711,3.8,W,A*1B
$GPGLL,5012.8115,N,00346.4003,W,040548,A,A*55
$GPRMC,040550,A,5012.8104,N,00346.3988,W,3.0,137.2,260711,3.8,W,A*13
$GPGLL,5012.8104,N,00346.3988,W,040550,A,A*51
$GPRMC,040552,A,5012.8092,N,00346.3973,W,2.7,138.3,260711,3.8,W,A*13
$GPGLL,5012.8092,N,00346.3973,W,040552,A,A*59
$GPRMC,040554,A,5012.8082,N,00346.3957,W,2.8,147.3,260711,3.8,W,A*15
$GPGLL,5012.8082,N,00346.3957,W,040554,A,A*58
$GPRMC,040556,A,5012.8069,N,00346.3940,W,2.8,130.5,260711,3.8,W,A*12
$GPGLL,5012.8069,N,00346.3940,W,040556,A,A*59
$GPRMC,040558,A,5012.8058,N,00346.3924,W,2.8,144.5,260711,3.8,W,A*1F
$GPGLL,5012.8058,N,00346.3924,W,040558,A,A*57
$GPRMC,040600,A,5012.8047,N,00346.3907,W,2.6,139.4,260711,3.8,W,A*1B
$GPGLL,5012.8047,N,00346.3907,W,040600,A,A*56
$GPRMC,040602,A,5012.8035,N,00346.3892,W,2.7,139.6,260711,3.8,W,A*12
$GPGLL,5012.8035,N,00346.3892,W,040602,A,A*5C
$GPRMC,040604,A,5012.8024,N,00346.3874,W,2.7,134.1,260711,3.8,W,A*16
$GPGLL,5012.8024,N,00346.3874,W,040604,A,A*52
$GPRMC,040606,A,5012.8012,N,00346.3859,W,2.9,135.9,260711,3.8,W,A*19
$GPGLL,5012.8012,N,00346.3859,W,040606,A,A*5A
$GPRMC,040608,A,5012.8001,N,00346.3842,W,2.8,140.4,260711,3.8,W,A*11
$GPGLL,5012.8001,N,00346.3842,W,040608,A,A*5C
$GPRMC,040610,A,5012.7991,N,00346.3826,W,2.6,138.6,260711,3.8,W,A*16
!AIVDM,1,1,,B,B3M@U<0007sd5J7;vL`03wU5oP06,0*24
$GPGLL,5012.7991,N,00346.3826,W,040610,A,A*58
$GPRMC,040612,A,5012.7980,N,00346.3811,W,2.7,136.0,260711,3.8,W,A*19
$GPGLL,5012.7980,N,00346.3811,W,040612,A,A*5E
$GPRMC,040614,A,5012.7971,N,00346.3793,W,2.8,144.8,260711,3.8,W,A*16
$GPGLL,5012.7971,N,00346.3793,W,040614,A,A*53
$GPRMC,040616,A,5012.7957,N,00346.3779,W,3.0,137.2,260711,3.8,W,A*13
$GPGLL,5012.7957,N,00346.3779,W,040616,A,A*51
$GPRMC,040618,A,5012.7946,N,00346.3763,W,2.4,150.1,260711,3.8,W,A*11
$GPGLL,5012.7946,N,00346.3763,W,040618,A,A*54
$GPRMC,040620,A,5012.7933,N,00346.3749,W,2.7,143.3,260711,3.8,W,A*13
$GPGLL,5012.7933,N,00346.3749,W,040620,A,A*55
$GPRMC,040622,A,5012.7921,N,00346.3735,W,2.8,144.2,260711,3.8,W,A*10
$GPGLL,5012.7921,N,00346.3735,W,040622,A,A*5F
$GPRMC,040624,A,5012.7908,N,00346.3720,W,2.9,142.2,260711,3.8,W,A*1E
!AIVDM,1,1,,A,B3Ad>R0007sd?JW;s<Pp?wd5kP06,0*5C
$GPGLL,5012.7908,N,00346.3720,W,040624,A,A*56
$GPRMC,040626,A,5012.7896,N,00346.3706,W,2.6,140.4,260711,3.8,W,A*15
$GPGLL,5012.7896,N,00346.3706,W,040626,A,A*56
$GPRMC,040628,A,5012.7885,N,00346.3690,W,2.9,142.3,260711,3.8,W,A*1D
$GPGLL,5012.7885,N,00346.3690,W,040628,A,A*54
$GPRMC,040630,A,5012.7874,N,00346.3671,W,2.7,133.7,260711,3.8,W,A*19
$GPGLL,5012.7874,N,00346.3671,W,040630,A,A*5C
$GPRMC,040632,A,5012.7862,N,00346.3656,W,2.9,140.1,260711,3.8,W,A*15
$GPGLL,5012.7862,N,00346.3656,W,040632,A,A*5C
$GPRMC,040634,A,5012.7850,N,00346.3640,W,2.5,131.3,260711,3.8,W,A*1D
$GPGLL,5012.7850,N,00346.3640,W,040634,A,A*5C
$GPRMC,040636,A,5012.7840,N,00346.3624,W,2.8,137.7,260711,3.8,W,A*13
$GPGLL,5012.7840,N,00346.3624,W,040636,A,A*5D
$GPRMC,040638,A,5012.7829,N,00346.3609,W,2.6,145.6,260711,3.8,W,A*17
$GPGLL,5012.7829,N,00346.3609,W,040638,A,A*53
$GPRMC,040640,A,5012.7819,N,00346.3593,W,2.7,143.9,260711,3.8,W,A*13
$GPGLL,5012.7819,N,00346.3593,W,040640,A,A*5F
$GPRMC,040642,A,5012.7806,N,00346.3579,W,2.9,143.3,260711,3.8,W,A*1F
$GPGLL,5012.7806,N,00346.3579,W,040642,A,A*57
$GPRMC,040644,A,5012.7794,N,00346.3564,W,2.6,141.4,260711,3.8,W,A*1B
$GPGLL,5012.7794,N,00346.3564,W,040644,A,A*59
$GPRMC,040646,A,5012.7783,N,00346.3547,W,2.8,125.6,260711,3.8,W,A*10
$GPGLL,5012.7783,N,00346.3547,W,040646,A,A*5C
$GPRMC,040648,A,5012.7773,N,00346.3531,W,2.9,144.5,260711,3.8,W,A*15
$GPGLL,5012.7773,N,00346.3531,W,040648,A,A*5C
$GPRMC,040650,A,5012.7762,N,00346.3514,W,2.7,125.4,260711,3.8,W,A*13
$GPGLL,5012.7762,N,00346.3514,W,040650,A,A*52
$GPRMC,040652,A,5012.7752,N,00346.3498,W,2.9,139.6,260711,3.8,W,A*16
$GPGLL,5012.7752,N,00346.3498,W,040652,A,A*56
$GPRMC,040654,A,5012.7740,N,00346.3482,W,2.7,134.5,260711,3.8,W,A*18
$GPGLL,5012.7740,N,00346.3482,W,040654,A,A*58
$GPRMC,040656,A,5012.7730,N,00346.3465,W,2.8,135.5,260711,3.8,W,A*1A
$GPGLL,5012.7730,N,00346.3465,W,040656,A,A*54
$GPRMC,040658,A,5012.7719,N,00346.3451,W,2.6,139.3,260711,3.8,W,A*1C
$GPGLL,5012.7719,N,00346.3451,W,040658,A,A*56
$GPRMC,040700,A,5012.7708,N,00346.3435,W,2.8,129.5,260711,3.8,W,A*1B
$GPGLL,5012.7708,N,00346.3435,W,040700,A,A*58
$GPRMC,040702,A,5012.7697,N,00346.3418,W,2.7,140.2,260711,3.8,W,A*16
$GPGLL,5012.7697,N,00346.3418,W,040702,A,A*52
$GPRMC,040704,A,5012.7687,N,00346.3400,W,2.7,139.5,260711,3.8,W,A*11
$GPGLL,5012.7687,N,00346.3400,W,040704,A,A*5C
$GPRMC,040706,A,5012.7676,N,00346.3385,W,2.8,141.1,260711,3.8,W,A*13
$GPGLL,5012.7676,N,00346.3385,W,040706,A,A*5A
$GPRMC,040708,A,5012.7665,N,00346.3371,W,2.6,138.3,260711,3.8,W,A*16
$GPGLL,5012.7665,N,00346.3371,W,040708,A,A*5D
$GPRMC,040710,A,5012.7653,N,00346.3357,W,2.9,142.1,260711,3.8,W,A*1E
$GPGLL,5012.7653,N,00346.3357,W,040710,A,A*55
$GPRMC,040712,A,5012.7641,N,00346.3342,W,2.8,136.7,260711,3.8,W,A*1F
$GPGLL,5012.7641,N,00346.3342,W,040712,A,A*50
$GPRMC,040714,A,5012.7629,N,00346.3328,W,2.8,132.3,260711,3.8,W,A*1B
$GPGLL,5012.7629,N,00346.3328,W,040714,A,A*54
$GPRMC,040716,A,5012.7619,N,00346.3313,W,2.8,170.9,260711,3.8,W,A*1E
$GPGLL,5012.7619,N,00346.3313,W,040716,A,A*5D
$GPRMC,040718,A,5012.7604,N,00346.3301,W,2.8,140.8,260711,3.8,W,A*1D
$GPGLL,5012.7604,N,00346.3301,W,040718,A,A*5C
$GPRMC,040720,A,5012.7590,N,00346.3290,W,3.2,166.8,260711,3.8,W,A*1E
$GPGLL,5012.7590,N,00346.3290,W,040720,A,A*50
$GPRMC,040722,A,5012.7577,N,00346.3276,W,2.7,137.2,260711,3.8,W,A*17
$GPGLL,5012.7577,N,00346.3276,W,040722,A,A*53
$GPRMC,040724,A,5012.7564,N,00346.3264,W,3.0,144.2,260711,3.8,W,A*12
$GPGLL,5012.7564,N,00346.3264,W,040724,A,A*54
$GPRMC,040726,A,5012.7552,N,00346.3250,W,2.8,142.0,260711,3.8,W,A*1F
$GPGLL,5012.7552,N,00346.3250,W,040726,A,A*54
$GPRMC,040728,A,5012.7541,N,00346.3236,W,2.8,146.2,260711,3.8,W,A*15
$GPGLL,5012.7541,N,00346.3236,W,040728,A,A*58
$GPRMC,040730,A,5012.7529,N,00346.3220,W,2.7,139.3,260711,3.8,W,A*13
$GPGLL,5012.7529,N,00346.3220,W,040730,A,A*58
$GPRMC,040732,A,5012.7519,N,00346.3204,W,2.7,128.4,260711,3.8,W,A*13
$GPGLL,5012.7519,N,00346.3204,W,040732,A,A*5F
$GPRMC,040734,A,5012.7507,N,00346.3188,W,2.6,136.3,260711,3.8,W,A*14
$GPGLL,5012.7507,N,00346.3188,W,040734,A,A*51
$GPRMC,040736,A,5012.7498,N,00346.3172,W,2.7,126.2,260711,3.8,W,A*15
$GPGLL,5012.7498,N,00346.3172,W,040736,A,A*51
$GPRMC,040738,A,5012.7488,N,00346.3157,W,2.6,140.0,260711,3.8,W,A*1E
$GPGLL,5012.7488,N,00346.3157,W,040738,A,A*59
$GPRMC,040740,A,5012.7479,N,00346.3141,W,2.5,133.3,260711,3.8,W,A*1C
$GPGLL,5012.7479,N,00346.3141,W,040740,A,A*5F
$GPRMC,040742,A,5012.7470,N,00346.3125,W,2.7,138.0,260711,3.8,W,A*1F
$GPGLL,5012.7470,N,00346.3125,W,040742,A,A*56
$GPRMC,040744,A,5012.7460,N,00346.3110,W,2.6,129.4,260711,3.8,W,A*1B
$GPGLL,5012.7460,N,00346.3110,W,040744,A,A*57
$GPRMC,040746,A,5012.7451,N,00346.3093,W,2.6,142.2,260711,3.8,W,A*1A
$GPGLL,5012.7451,N,00346.3093,W,040746,A,A*5D
$GPRMC,040748,A,5012.7441,N,00346.3074,W,2.5,120.9,260711,3.8,W,A*10
$GPGLL,5012.7441,N,00346.3074,W,040748,A,A*5B
$GPRMC,040750,A,5012.7431,N,00346.3056,W,3.0,145.8,260711,3.8,W,A*18
$GPGLL,5012.7431,N,00346.3056,W,040750,A,A*55
$GPRMC,040752,A,5012.7422,N,00346.3037,W,2.6,110.2,260711,3.8,W,A*12
$GPGLL,5012.7422,N,00346.3037,W,040752,A,A*52
$GPRMC,040754,A,5012.7411,N,00346.3022,W,2.9,141.0,260711,3.8,W,A*19
$GPGLL,5012.7411,N,00346.3022,W,040754,A,A*50
$GPRMC,040756,A,5012.7401,N,00346.3005,W,2.6,135.7,260711,3.8,W,A*14
$GPGLL,5012.7401,N,00346.3005,W,040756,A,A*56
$GPRMC,040758,A,5012.7391,N,00346.2989,W,2.6,136.6,260711,3.8,W,A*1A
$GPGLL,5012.7391,N,00346.2989,W,040758,A,A*5A
$GPRMC,040800,A,5012.7381,N,00346.2973,W,2.7,119.7,260711,3.8,W,A*11
$GPGLL,5012.7381,N,00346.2973,W,040800,A,A*5C
$GPRMC,040802,A,5012.7371,N,00346.2956,W,2.7,145.7,260711,3.8,W,A*12
$GPGLL,5012.7371,N,00346.2956,W,040802,A,A*56
$GPRMC,040804,A,5012.7359,N,00346.2941,W,3.0,141.0,260711,3.8,W,A*1D
$GPGLL,5012.7359,N,00346.2941,W,040804,A,A*5C
$GPRMC,040806,A,5012.7347,N,00346.2924,W,2.9,132.3,260711,3.8,W,A*1C
$GPGLL,5012.7347,N,00346.2924,W,040806,A,A*52
$GPRMC,040808,A,5012.7336,N,00346.2908,W,2.7,151.2,260711,3.8,W,A*10
$GPGLL,5012.7336,N,00346.2908,W,040808,A,A*54
$GPRMC,040810,A,5012.7326,N,00346.2891,W,2.5,125.1,260711,3.8,W,A*1B
$GPGLL,5012.7326,N,00346.2891,W,040810,A,A*5D
$GPRMC,040812,A,5012.7315,N,00346.2877,W,2.8,147.0,260711,3.8,W,A*19
$GPGLL,5012.7315,N,00346.2877,W,040812,A,A*57
$GPRMC,040814,A,5012.7303,N,00346.2863,W,2.6,147.2,260711,3.8,W,A*11
$GPGLL,5012.7303,N,00346.2863,W,040814,A,A*53
$GPRMC,040816,A,5012.7292,N,00346.2848,W,2.5,134.9,260711,3.8,W,A*1F
$GPGLL,5012.7292,N,00346.2848,W,040816,A,A*51
$GPRMC,040818,A,5012.7280,N,00346.2833,W,3.0,141.7,260711,3.8,W,A*16
$GPGLL,5012.7280,N,00346.2833,W,040818,A,A*50
$GPRMC,040820,A,5012.7269,N,00346.2818,W,2.4,142.8,260711,3.8,W,A*1A
$GPGLL,5012.7269,N,00346.2818,W,040820,A,A*55
$GPRMC,040822,A,5012.7258,N,00346.2805,W,2.7,146.0,260711,3.8,W,A*19
$GPGLL,5012.7258,N,00346.2805,W,040822,A,A*59
$GPRMC,040824,A,5012.7245,N,00346.2791,W,2.7,137.5,260711,3.8,W,A*12
$GPGLL,5012.7245,N,00346.2791,W,040824,A,A*51
$GPRMC,040826,A,5012.7234,N,00346.2777,W,2.5,137.8,260711,3.8,W,A*11
$GPGLL,5012.7234,N,00346.2777,W,040826,A,A*5D
$GPRMC,040828,A,5012.7223,N,00346.2762,W,2.7,152.6,260711,3.8,W,A*12
$GPGLL,5012.7223,N,00346.2762,W,040828,A,A*51
$GPRMC,040830,A,5012.7211,N,00346.2749,W,2.7,138.4,260711,3.8,W,A*1D
$GPGLL,5012.7211,N,00346.2749,W,040830,A,A*50
$GPRMC,040832,A,5012.7199,N,00346.2735,W,2.6,148.3,260711,3.8,W,A*16
$GPGLL,5012.7199,N,00346.2735,W,040832,A,A*5A
$GPRMC,040834,A,5012.7187,N,00346.2722,W,2.5,139.3,260711,3.8,W,A*1C
$GPGLL,5012.7187,N,00346.2722,W,040834,A,A*55
$GPRMC,040836,A,5012.7176,N,00346.2705,W,2.7,129.9,260711,3.8,W,A*1C
$GPGLL,5012.7176,N,00346.2705,W,040836,A,A*5C
$GPRMC,040838,A,5012.7166,N,00346.2689,W,2.6,139.9,260711,3.8,W,A*16
$GPGLL,5012.7166,N,00346.2689,W,040838,A,A*56
$GPRMC,040840,A,5012.7156,N,00346.2673,W,2.8,138.4,260711,3.8,W,A*1D
$GPGLL,5012.7156,N,00346.2673,W,040840,A,A*5F
$GPRMC,040842,A,5012.7148,N,00346.2654,W,2.5,121.9,260711,3.8,W,A*1D
$GPGLL,5012.7148,N,00346.2654,W,040842,A,A*57
$GPRMC,040844,A,5012.7140,N,00346.2635,W,2.9,111.6,260711,3.8,W,A*14
$GPGLL,5012.7140,N,00346.2635,W,040844,A,A*5E
$GPRMC,040846,A,5012.7133,N,00346.2615,W,2.5,138.0,260711,3.8,W,A*11
$GPGLL,5012.7133,N,00346.2615,W,040846,A,A*5A
$GPRMC,040848,A,5012.7125,N,00346.2595,W,2.7,110.8,260711,3.8,W,A*13
$GPGLL,5012.7125,N,00346.2595,W,040848,A,A*58
$GPRMC,040850,A,5012.7119,N,00346.2574,W,2.6,127.0,260711,3.8,W,A*17
$GPGLL,5012.7119,N,00346.2574,W,040850,A,A*51
$GPRMC,040852,A,5012.7111,N,00346.2554,W,2.7,111.9,260711,3.8,W,A*12
$GPGLL,5012.7111,N,00346.2554,W,040852,A,A*59
$GPRMC,040854,A,5012.7104,N,00346.2531,W,2.7,122.3,260711,3.8,W,A*19
$GPGLL,5012.7104,N,00346.2531,W,040854,A,A*58
$GPRMC,040856,A,5012.7098,N,00346.2511,W,2.5,119.7,260711,3.8,W,A*13
$GPGLL,5012.7098,N,00346.2511,W,040856,A,A*5C
$GPRMC,040858,A,5012.7091,N,00346.2491,W,2.6,124.0,260711,3.8,W,A*17
$GPGLL,5012.7091,N,00346.2491,W,040858,A,A*52
$GPRMC,040900,A,5012.7086,N,00346.2470,W,2.7,105.7,260711,3.8,W,A*17
$GPGLL,5012.7086,N,00346.2470,W,040900,A,A*57
$GPRMC,040902,A,5012.7080,N,00346.2448,W,2.7,116.7,260711,3.8,W,A*1A
$GPGLL,5012.7080,N,00346.2448,W,040902,A,A*58
$GPRMC,040904,A,5012.7074,N,00346.2429,W,2.6,123.1,260711,3.8,W,A*11
$GPGLL,5012.7074,N,00346.2429,W,040904,A,A*52
$GPRMC,040906,A,5012.7067,N,00346.2407,W,2.7,114.9,260711,3.8,W,A*10
