$GPRMC,092211.00,A,5759.09700,N,01144.34344,E,5.257,28.27,200715,,,A*58
$RATTM,11,11.4,13.6,T,7.0,20.0,T,0.0,0.0,N,,Q,,154125.82,A,*17
$IIRMC,092210,A,5759.095,N,01144.342,E,5.5,31.1,,0.0,E,A*30
$IIRMA,A,5759.095,N,01144.342,E,,,5.5,31.1,0.0,E,A*3A
$IIMTW,16.8,C*1C
$IIVLW,2354.92,N,2338.533,N*79
$IIVHW,,T,25.0,M,5.9,N,10.9,K*78
$IIXDR,C,20.5,C,AIRT,*75
!AIVDM,1,1,,B,13u=gHP3CWPlvs2Q8sHW:5fD0h6a,0*1B
$IIHDG,25.0,0,E,0.0,E*60
$IIDPT,14.8,0.4,100.0*7A
!AIVDM,1,1,,A,13bvpB001f0lPAFQ7HKptoBF00Sa,0*66
$GPGBS,092211.00,1.9,1.5,3.2,,,,*45
$GPRMC,092212,A,5759.097,N,01144.345,E,005.5,030.5,200715,000.0,E*79
$IIRSA,28,A,,*b
$GPRMB,A,,,,,,,,,,,,V*71
!AIVDO,1,1,,,B3uBrjP0=0=Kjm8BoS`AcwUUwP06,0*75
$IIRMC,092210,A,5759.096,N,01144.343,E,5.5,31.1,,0.0,E,A*32
$IIRMA,A,5759.096,N,01144.343,E,,,5.5,31.1,0.0,E,A*38
$IIMTW,16.8,C*1C
$IIVLW,2354.92,N,2338.536,N*7C
$IIVHW,,T,25.0,M,5.9,N,10.9,K*78
$IIHDG,25.0,0,E,0.0,E*60
!AIVDM,1,1,,A,802R5Ph0GhENJAb8wnREgq>lFR06EuOwgwl?wnSwe7wwwwwwsAwwnSomwvwt,0*75
$GPGGA,092212,5759.097,N,01144.345,E,1,06,1.9,3.5,M,39.4,M,,*4C
$GPGSA,A,3,02,,12,14,,24,25,32,,,,,2.7,1.9,2.0*39
$GPGSV,2,1,08,02,21,120,42,06,29,080,00,12,86,124,52,14,41,275,46*7C
$IIDPT,15.1,0.4,100.0*72
!AIVDM,1,1,,B,402R3cQuur9F;0o<l<Q0lDi00<5@,0*2C
!AIVDM,1,1,,B,D02R3d@6dNfp00O6D2,4*27
$GPGSV,2,2,08,17,13,044,00,24,45,150,46,25,49,259,48,32,10,328,47*76
$PGRME,19.1,M,19.8,M,27.5,M*17
$GPGLL,5759.098,N,01144.346,E,092212,A*2E
$RATTM,11,11.4,13.6,T,7.0,20.0,T,0.0,0.0,N,,Q,,154125.82,A,*17
$IIRSA,26,A,,*5
$PGRMZ,12,f,3*28
$PGRMM,WGS 84*06
$IIXDR,C,20.5,C,AIRT,*75
$GPBOD,,T,,M,,*47
$IIRMC,092212,A,5759.097,N,01144.345,E,5.5,30.5,,0.0,E,A*32
$IIRMA,A,5759.097,N,01144.345,E,,,5.5,30.5,0.0,E,A*3A
$IIMTW,16.8,C*1C
$IIVLW,2354.921,N,2338.537,N*4C
$GPRTE,1,1,c,0*07
$IIVHW,,T,23.0,M,5.8,N,10.8,K*7E
$IIHDG,23.0,0,E,0.0,E*66
!AIVDO,1,1,,,B3uBrjP0=@=Kjs`BoTPBgwV5wP06,0*10
$IIDPT,15.1,0.4,100.0*72
!AIVDM,1,1,,B,802R5Ph0GhEKv1aVNNREQa60h4BvEuFMB7l>76@5=I02lCwwsAwwnSomwvwt,0*56
!AIVDM,1,1,,A,D02R3cQk8Nfr:hO6D<,4*6D
!AIVDM,1,1,,A,13u=gHPrSNPlvrlQ8rp755dH0p7o,0*40
$IIRMC,092212,A,5759.097,N,01144.345,E,5.5,30.5,,0.0,E,A*32
$IIRMA,A,5759.098,N,01144.346,E,,,5.5,30.5,0.0,E,A*36
$IIMTW,16.8,C*1C
$IIVLW,2354.923,N,2338.537,N*4E
$IIVHW,,T,25.0,M,5.7,N,10.5,K*7A
$IIHDG,24.0,0,E,0.0,E*61
$IIRSA,24,A,,*7
$IIDPT,15.4,0.4,100.0*77
!AIVDO,1,1,,,B3uBrjP0=0=Kk28BoUDBCwVUwP06,0*29
!AIVDM,1,1,,A,802R5Ph0GhE<>iawh6RER91t?PE6EuOwgqwcwnSwe7wwwwwwsAwwnSjVwvwt,0*4B
$GPRMC,092214,A,5759.100,N,01144.348,E,005.5,030.3,200715,000.0,E*7B
$GPRMB,A,,,,,,,,,,,,V*71
$GPGGA,092214,5759.100,N,01144.348,E,1,06,1.9,3.9,M,39.4,M,,*44
$IIRMC,092212,A,5759.098,N,01144.346,E,5.5,30.5,,0.0,E,A*3E
$IIRMA,A,5759.098,N,01144.346,E,,,5.5,30.5,0.0,E,A*36
$IIMTW,16.8,C*1C
$IIVLW,2354.924,N,2338.539,N*47
$IIVHW,,T,25.0,M,5.8,N,10.7,K*77
$IIHDG,25.0,0,E,0.0,E*60
$IIDPT,15.3,0.4,100.0*70
$GPGSA,A,3,02,,12,14,,24,25,32,,,,,2.7,1.9,2.0*39
$GPGSV,2,1,08,02,21,120,45,06,29,080,00,12,86,124,54,14,41,275,47*7C
$GPGSV,2,2,08,17,13,044,00,24,45,150,42,25,49,259,48,32,10,328,47*72
$PGRME,19.1,M,19.8,M,27.5,M*17
$GPGLL,5759.101,N,01144.348,E,092214,A*27
$PGRMZ,13,f,3*29
$PGRMM,WGS 84*06
$GPBOD,,T,,M,,*47
$GPRTE,1,1,c,0*07
$IIXDR,C,22.5,C,AIRT,*77
$IIRMC,092212,A,5759.098,N,01144.346,E,5.5,30.5,,0.0,E,A*3E
$IIRMA,A,5759.098,N,01144.346,E,,,5.5,30.5,0.0,E,A*36
$IIMTW,16.8,C*1C
$IIVLW,2354.924,N,2338.54,N*79
$IIVHW,,T,27.0,M,5.7,N,10.6,K*7B
!AIVDO,1,1,,,B3uBrjP0=0=Kk88BoV<ASwW5sP06,0*2E
$IIHDG,27.0,0,E,0.0,E*62
$IIDPT,15.2,0.4,100.0*71
!AIVDM,1,1,,B,402R3dAuur9F>0n7A:QIf:100H8q,0*02
$GPRMC,092215.00,A,5759.10253,N,01144.34844,E,5.248,27.03,200715,,,A*5B
!AIVDM,1,1,,B,H39JUq4TC=D5PRC41nnji00h6210,0*4C
!AIVDM,1,1,,B,13u=gHPt3bPlvrTQ8rGo2EdL0d0T,0*05
$IIRMC,092214,A,5759.101,N,01144.348,E,5.5,30.3,,0.0,E,A*31
$IIRMA,A,5759.101,N,01144.348,E,,,5.5,30.3,0.0,E,A*3F
$IIRSA,22,A,,*1
$IIMTW,16.8,C*1C
$IIVLW,2354.925,N,2338.54,N*78
!AIVDM,1,1,,A,B39JUq00>H=En<`BE:`i;wWUoP06,0*7F
$IIVHW,,T,27.0,M,5.8,N,10.7,K*75
$IIHDG,27.0,0,E,0.0,E*62
$IIDPT,15.3,0.4,100.0*70
$GPGBS,092215.00,1.9,1.5,3.2,,,,*41
!AIVDM,1,1,,B,13v5NH001C0mDF@Q9Bdk32NP0<0n,0*67
!AIVDO,1,1,,,B3uBrjP0=0=Kk>8BoW4@swWUwP06,0*64
!AIVDM,1,1,,B,802R5Ph0GhENJAb8wnREgq>lFR06EuOwgwl?wnSwe7wwwwwwsAwwnSomwvwt,0*76
$GPRMC,092216,A,5759.102,N,01144.349,E,005.5,030.4,200715,000.0,E*7D
$GPRMB,A,,,,,,,,,,,,V*71
$GPGGA,092216,5759.102,N,01144.349,E,1,06,2.0,4.0,M,39.4,M,,*41
!AIVDM,1,1,,A,13M40b00010mTvRQ<INVu3:L0@9L,0*2A
$IIRMC,092214,A,5759.101,N,01144.348,E,5.5,30.3,,0.0,E,A*31
$IIRMA,A,5759.101,N,01144.348,E,,,5.5,30.3,0.0,E,A*3F
$IIMTW,16.8,C*1C
$IIVLW,2354.928,N,2338.541,N*44
$IIRSA,20,A,,*3
$IIVHW,,T,26.0,M,5.8,N,10.7,K*74
$IIHDG,26.0,0,E,0.0,E*63
$GPGSA,A,3,02,,12,14,,24,25,32,,,,,3.1,2.0,2.4*30
$GPGSV,2,1,08,02,21,120,47,06,29,080,00,12,86,124,52,14,41,275,47*78
$GPGSV,2,2,08,17,13,044,00,24,45,150,32,25,49,259,46,32,10,328,49*75
$PGRME,20.2,M,19.9,M,28.4,M*11
$IIDPT,15.4,0.4,100.0*77
$GPGLL,5759.103,N,01144.350,E,092216,A*2E
$PGRMZ,13,f,3*29
$PGRMM,WGS 84*06
$GPBOD,,T,,M,,*47
$GPRTE,1,1,c,0*07
$IIRMC,092216,A,5759.102,N,01144.349,E,5.5,30.4,,0.0,E,A*36
$IIRMA,A,5759.102,N,01144.349,E,,,5.5,30.4,0.0,E,A*3A
$IIMTW,16.8,C*1C
$IIVLW,2354.928,N,2338.544,N*41
!AIVDO,1,1,,,B3uBrjP0=0=KkD`BoWlDSw`5wP06,0*6D
$IIVHW,,T,26.0,M,5.7,N,10.5,K*79
$IIHDG,26.0,0,E,0.0,E*63
$IIDPT,15.3,0.4,100.0*70
!AIVDM,1,1,,A,13u=gHP03TPlvrFQ8qo735dP0d0T,0*78
$IIRMC,092216,A,5759.103,N,01144.350,E,5.5,30.4,,0.0,E,A*3F
$IIRMA,A,5759.103,N,01144.350,E,,,5.5,30.4,0.0,E,A*33
$IIMTW,16.8,C*1C
$IIVLW,2354.929,N,2338.545,N*41
$IIVHW,,T,27.0,M,5.7,N,10.6,K*7B
$IIHDG,27.0,0,E,0.0,E*62
$IIDPT,15.6,0.4,100.0*75
!AIVDO,1,1,,,B3uBrjP0=@=KkM8Bo`PDww`UwP06,0*03
$IIXDR,C,20.5,C,AIRT,*75
$GPRMC,092218,A,5759.104,N,01144.352,E,005.5,031.0,200715,000.0,E*7A
$GPRMB,A,,,,,,,,,,,,V*71
$IIRSA,18,A,,*8
$GPGGA,092218,5759.104,N,01144.352,E,1,06,1.9,3.8,M,39.4,M,,*46
!AIVDM,1,1,,B,39NSDN54AO0mv4FQ=OjoAn2T06b3,0*56
!AIVDM,1,1,,B,802R5Ph0GhE<>iawh6RER91t?PE6EuOwgqwcwnSwe7wwwwwwsAwwnSjVwvwt,0*48
$IIRMC,092216,A,5759.103,N,01144.350,E,5.5,30.4,,0.0,E,A*3F
$IIRMA,A,5759.103,N,01144.350,E,,,5.5,30.4,0.0,E,A*33
$IIMTW,16.8,C*1C
$IIVLW,2354.93,N,2338.545,N*79
$IIVHW,,T,31.0,M,5.8,N,10.8,K*7D
$IIHDG,31.0,0,E,0.0,E*65
$GPGSA,A,3,02,,12,14,,24,25,32,,,,,2.7,1.9,2.0*39
$GPGSV,2,1,08,02,21,120,44,06,29,080,00,12,86,124,54,14,41,275,47*7D
$GPGSV,2,2,08,17,13,044,00,24,45,150,32,25,49,259,46,32,10,328,49*75
$PGRME,19.1,M,19.8,M,27.5,M*17
$IIDPT,15.6,0.4,100.0*75
$GPGLL,5759.105,N,01144.353,E,092218,A*25
$PGRMZ,12,f,3*28
$PGRMM,WGS 84*06
$GPBOD,,T,,M,,*47
$GPRTE,1,1,c,0*07
!AIVDO,1,1,,,B3uBrjP0=@=KkU`Boa@D?wa5wP06,0*7B
$IIRMC,092218,A,5759.104,N,01144.352,E,5.5,31.0,,0.0,E,A*31
$IIRMA,A,5759.104,N,01144.352,E,,,5.5,31.0,0.0,E,A*33
$IIMTW,16.8,C*1C
$IIVLW,2354.93,N,2338.546,N*7A
$IIVHW,,T,29.0,M,5.8,N,10.8,K*74
$IIHDG,29.0,0,E,0.0,E*6C
$GPRMC,092219.00,A,5759.10728,N,01144.35457,E,5.278,32.84,200715,,,A*59
$IIDPT,15.6,0.4,100.0*75
!AIVDM,1,1,,B,13u=gHP2CNPlvr0Q8qFG:5fT0h;D,0*24
!AIVDM,1,1,,B,33u><=P010PmJs8Q0w744jjT0000,0*47
$IIRMC,092218,A,5759.105,N,01144.353,E,5.5,31.0,,0.0,E,A*31
$IIRMA,A,5759.105,N,01144.353,E,,,5.5,31.0,0.0,E,A*33
$IIMTW,16.8,C*1C
$IIRSA,16,A,,*6
$IIVLW,2354.932,N,2338.548,N*46
$GPGBS,092219.00,1.9,1.5,3.2,,,,*4D
$IIVHW,,T,30.0,M,5.9,N,11.0,K*74
$IIHDG,30.0,0,E,0.0,E*64
$IIDPT,15.6,0.4,100.0*75
$GPRMC,092220,A,5759.107,N,01144.355,E,005.5,031.5,200715,000.0,E*70
$GPRMB,A,,,,,,,,,,,,V*71
$GPGGA,092220,5759.107,N,01144.356,E,1,06,1.9,3.9,M,39.4,M,,*4B
!AIVDO,1,1,,,B3uBrjP0=0=Kkd`Bob0DSwaUwP06,0*45
!AIVDM,1,1,,A,802R5Ph0GhENJAb8wnREgq>lFR06EuOwgwl?wnSwe7wwwwwwsAwwnSomwvwt,0*75
$GPGSA,A,3,02,,12,14,,24,25,32,,,,,2.7,1.9,2.0*39
$GPGSV,2,1,08,02,21,120,48,06,29,080,00,12,86,124,53,14,41,275,45*74
$GPGSV,2,2,08,17,13,044,00,24,45,150,44,25,49,259,47,32,10,328,48*74
$IIRMC,092218,A,5759.105,N,01144.353,E,5.5,31.0,,0.0,E,A*31
$IIRMA,A,5759.105,N,01144.353,E,,,5.5,31.0,0.0,E,A*33
$IIMTW,16.8,C*1C
$IIVLW,2354.935,N,2338.548,N*41
$IIVHW,,T,29.0,M,5.8,N,10.8,K*74
$IIHDG,28.0,0,E,0.0,E*6D
$IIDPT,15.2,0.4,100.0*71
$PGRME,19.1,M,19.8,M,27.5,M*17
$GPGLL,5759.108,N,01144.356,E,092220,A*26
$PGRMZ,13,f,3*29
$PGRMM,WGS 84*06
$GPBOD,,T,,M,,*47
$GPRTE,1,1,c,0*07
$IIRMC,092220,A,5759.107,N,01144.356,E,5.5,31.5,,0.0,E,A*38
!AIVDM,2,1,8,A,53bvpB02;CK10@lf220<u84j0lThhE0u8622221@:`?<35sC0>l3lUSkp81R,0*3B
$IIRMA,A,5759.107,N,01144.356,E,,,5.5,31.5,0.0,E,A*31
!AIVDM,2,2,8,A,C`888888882,2*0D
$IIMTW,16.8,C*1C
!AIVDO,1,1,,,B3uBrjP0=0=Kkl8BoblESwb5sP06,0*2F
$IIVLW,2354.936,N,2338.551,N*4A
$IIRSA,14,A,,*4
$IIVHW,,T,28.0,M,5.8,N,10.7,K*7A
$IIHDG,27.0,0,E,0.0,E*62
$IIDPT,15.2,0.4,100.0*71
!AIVDM,1,1,,A,13u=gHP4SmPlvqfQ8pn7@Ef`0d0T,0*37
!AIVDM,1,1,,B,13bvpB001f0lP3lQ7Ga8tWBb0@<Q,0*63
$IIRMC,092220,A,5759.108,N,01144.356,E,5.5,31.5,,0.0,E,A*37
$IIRMA,A,5759.108,N,01144.356,E,,,5.5,31.5,0.0,E,A*3E
$IIMTW,16.8,C*1C
$IIVLW,2354.936,N,2338.552,N*49
$IIVHW,,T,29.0,M,5.7,N,10.6,K*75
$IIHDG,29.0,0,E,0.0,E*6C
$IIDPT,14.9,0.4,100.0*7B
$GPRMC,092222,A,5759.109,N,01144.358,E,005.5,031.8,200715,000.0,E*7C
$GPRMB,A,,,,,,,,,,,,V*71
$GPGGA,092222,5759.110,N,01144.359,E,1,06,1.9,3.9,M,39.4,M,,*40
!AIVDO,1,1,,,B3uBrjP0=0=Kkt`BocTF3wbUsP06,0*55
!AIVDM,1,1,,A,402R3cQuur9FE0o<l:Q0lDi0059H,0*5A
$IIRMC,092220,A,5759.108,N,01144.356,E,5.5,31.5,,0.0,E,A*37
$IIRMA,A,5759.110,N,01144.359,E,,,5.5,31.8,0.0,E,A*35
$IIMTW,16.9,C*1D
$IIVLW,2354.936,N,2338.552,N*49
$GPGSA,A,3,02,,12,14,,24,25,32,,,,,2.7,1.9,2.0*39
$GPGSV,2,1,08,02,21,120,43,06,29,080,00,12,86,124,54,14,41,275,47*7A
$GPGSV,2,2,08,17,13,044,00,24,45,150,43,25,49,259,46,32,10,328,48*72
$PGRME,19.1,M,19.8,M,27.5,M*17
$IIVHW,,T,31.0,M,5.7,N,10.6,K*7C
$GPGLL,5759.110,N,01144.360,E,092222,A*28
$PGRMZ,13,f,3*29
$PGRMM,WGS 84*06
$IIHDG,32.0,0,E,0.0,E*66
$GPBOD,,T,,M,,*47
$IIDPT,14.9,0.4,100.0*7B
$GPRTE,1,1,c,0*07
$IIRSA,12,A,,*2
$IIXDR,C,22.5,C,AIRT,*77
!AIVDO,1,1,,,B3uBrjP0<h=Kl5`Bod@DGwc5wP06,0*4A
$GPRMC,092223.00,A,5759.11204,N,01144.36109,E,5.144,32.99,200715,,,A*57
$IIRMC,092222,A,5759.110,N,01144.359,E,5.5,31.8,,0.0,E,A*3E
$IIRMA,A,5759.110,N,01144.359,E,,,5.5,31.8,0.0,E,A*35
$IIMTW,16.8,C*1C
$IIVLW,2354.938,N,2338.553,N*46
!AIVDM,1,1,,B,802R5Ph0GhF;L9`luVREQ8j;iN06EuOwgwl?wnSwe7wwwwwwsAwwnSomwvwt,0*5D
$IIVHW,,T,32.0,M,5.6,N,10.5,K*7D
$IIHDG,32.0,0,E,0.0,E*66
$IIDPT,15.0,0.4,100.0*73
!AIVDM,1,1,,B,13u=gHP1kePlvqNQ8pEW4Udd0d0T,0*00
!AIVDM,1,1,,A,B3uA7DP00H=GhE`B0mr<swcUoP06,0*65
$GPGBS,092223.00,1.9,1.5,3.2,,,,*44
$IIRMC,092222,A,5759.110,N,01144.360,E,5.5,31.8,,0.0,E,A*34
$IIRMA,A,5759.110,N,01144.360,E,,,5.5,31.8,0.0,E,A*3F
$IIMTW,16.8,C*1C
$IIVLW,2354.939,N,2338.555,N*41
$IIVHW,,T,32.0,M,5.6,N,10.3,K*7B
$IIHDG,32.0,0,E,0.0,E*66
$GPRMC,092224,A,5759.112,N,01144.361,E,005.3,032.7,200715,000.0,E*70
$GPRMB,A,,,,,,,,,,,,V*71
$GPGGA,092224,5759.112,N,01144.362,E,1,06,1.9,3.7,M,39.4,M,,*42
!AIVDO,1,1,,,B3uBrjP0<h=Kl=8Boe0DWwcUwP06,0*1B
$IIDPT,15.5,0.4,100.0*76
!AIVDM,1,1,,B,B3@oDQh0<p=MPJ`C71Ap;wd5oP06,0*20
$GPGSA,A,3,02,,12,14,,24,25,32,,,,,2.7,1.9,2.0*39
$GPGSV,2,1,08,02,21,120,44,06,29,080,00,12,86,124,53,14,41,275,44*79
$GPGSV,2,2,08,17,13,044,00,24,45,150,44,25,49,259,49,32,10,328,47*75
$PGRME,19.1,M,19.8,M,27.5,M*17
$GPGLL,5759.112,N,01144.363,E,092224,A*2F
$PGRMZ,11,f,3*2B
$PGRMM,WGS 84*06
$IIRSA,10,A,,*0
$IIRMC,092224,A,5759.112,N,01144.362,E,5.3,32.7,,0.0,E,A*38
$IIRMA,A,5759.112,N,01144.362,E,,,5.3,32.7,0.0,E,A*35
$IIMTW,16.8,C*1C
$IIVLW,2354.94,N,2338.555,N*7F
$IIVHW,,T,31.0,M,5.6,N,10.4,K*7F
$GPBOD,,T,,M,,*47
$IIHDG,31.0,0,E,0.0,E*65
$GPRTE,1,1,c,0*07
$IIDPT,15.2,0.4,100.0*71
!AIVDM,1,1,,B,13M40b00000mTvTQ<INoOS:f059H,0*16
!AIVDO,1,1,,,B3uBrjP0<@=KlE8BoedFcwd5sP06,0*4A
!AIVDM,1,1,,A,402R3dAuur9FH0n7A8QIf9i000S:,0*76
!AIVDM,1,1,,A,13v5NH001C0mDR>Q9BnC6RRj0D0n,0*17
!AIVDM,1,1,,A,13u=gHPqkrPlvq2Q8olo35`h0`>j,0*7D
$IIRMC,092224,A,5759.112,N,01144.362,E,5.3,32.7,,0.0,E,A*38
$IIRMA,A,5759.112,N,01144.362,E,,,5.3,32.7,0.0,E,A*35
$IIMTW,16.8,C*1C
$IIVLW,2354.94,N,2338.556,N*7C
$IIVHW,,T,31.0,M,5.3,N,9.9,K*4F
$IIHDG,30.0,0,E,0.0,E*64
$IIDPT,15.2,0.4,100.0*71
$IIRMC,092224,A,5759.112,N,01144.363,E,5.3,32.7,,0.0,E,A*39
$IIRMA,A,5759.112,N,01144.363,E,,,5.3,32.7,0.0,E,A*34
$IIMTW,16.8,C*1C
$IIVLW,2354.942,N,2338.558,N*40
$GPRMC,092226,A,5759.114,N,01144.364,E,005.3,033.6,200715,000.0,E*71
$GPRMB,A,,,,,,,,,,,,V*71
$GPGGA,092226,5759.114,N,01144.365,E,1,06,1.9,3.0,M,39.4,M,,*46
$IIVHW,,T,31.0,M,5.4,N,10.0,K*79
$IIHDG,31.0,0,E,0.0,E*65
!AIVDO,1,1,,,B3uBrjP0<P=KlM`BofDH;wdUsP06,0*1F
$IIDPT,15.6,0.4,100.0*75
$IIRSA,8,A,,*39
$GPGSA,A,3,02,,12,14,,24,25,32,,,,,2.7,1.9,2.0*39
$GPGSV,2,1,08,02,21,120,47,06,29,080,00,12,86,124,54,14,41,275,45*7C
$GPGSV,2,2,08,17,13,044,00,24,45,150,44,25,49,259,46,32,10,328,47*7A
$PGRME,19.1,M,19.8,M,27.5,M*17
$GPGLL,5759.115,N,01144.365,E,092226,A*2C
$PGRMZ,9,f,3*12
$PGRMM,WGS 84*06
$IIRMC,092226,A,5759.114,N,01144.365,E,5.3,33.6,,0.0,E,A*3B
$IIRMA,A,5759.114,N,01144.365,E,,,5.3,33.6,0.0,E,A*34
$IIMTW,16.8,C*1C
$IIVLW,2354.943,N,2338.559,N*40
$GPBOD,,T,,M,,*47
$IIVHW,,T,30.0,M,5.5,N,10.2,K*7B
$GPRTE,1,1,c,0*07
$IIHDG,28.0,0,E,0.0,E*6D
$IIDPT,15.8,0.4,100.0*7B
!AIVDM,1,1,,A,D02R3dAIPNfp00O6D5,4*69
$GPRMC,092227.00,A,5759.11635,N,01144.36745,E,5.102,33.13,200715,,,A*5A
!AIVDO,1,1,,,B3uBrjP0<h=Kle8BogdDgweUsP06,0*27
!AIVDM,1,1,,B,802R5Ph0GhF;L9`luVREQ8j;iN06EuOwgwl?wnSwe7wwwwwwsAwwnSomwvwt,0*5D
$IIRMC,092226,A,5759.114,N,01144.365,E,5.3,33.6,,0.0,E,A*3B
$IIRMA,A,5759.114,N,01144.365,E,,,5.3,33.6,0.0,E,A*34
$IIMTW,16.8,C*1C
$IIVLW,2354.944,N,2338.56,N*7D
$IIVHW,,T,31.0,M,5.5,N,10.1,K*79
$IIHDG,31.0,0,E,0.0,E*65
$IIDPT,15.8,0.4,100.0*7B
$GPGBS,092227.00,1.9,1.6,3.3,,,,*42
$GPRMC,092228,A,5759.116,N,01144.368,E,005.3,033.6,200715,000.0,E*71
$GPRMB,A,,,,,,,,,,,,V*71
$IIRMC,092226,A,5759.115,N,01144.365,E,5.3,33.6,,0.0,E,A*3A
$IIRMA,A,5759.115,N,01144.365,E,,,5.3,33.6,0.0,E,A*35
$IIMTW,16.8,C*1C
$IIRSA,6,A,,*37
$IIVLW,2354.945,N,2338.561,N*4D
$IIVHW,,T,34.0,M,5.7,N,10.6,K*79
$IIHDG,34.0,0,E,0.0,E*60
!AIVDO,1,1,,,B3uBrjP0=0=Kll8BohPDOwf5sP06,0*07
$GPGGA,092228,5759.116,N,01144.368,E,1,06,1.9,2.9,M,39.4,M,,*4F
$GPGSA,A,3,02,,12,14,,24,25,32,,,,,2.7,1.9,2.0*39
$GPGSV,2,1,08,02,21,120,46,06,29,080,00,12,86,124,54,14,41,275,46*7E
!AIVDM,1,1,,B,D02R3cQW4Nfp00O6D>,4*0C
$IIDPT,15.8,0.4,100.0*7B
$GPGSV,2,2,08,17,13,044,00,24,45,150,48,25,49,259,44,32,10,328,41*72
$PGRME,19.0,M,19.8,M,27.4,M*17
$GPGLL,5759.117,N,01144.368,E,092228,A*2D
$PGRMZ,9,f,3*12
$PGRMM,WGS 84*06
$GPBOD,,T,,M,,*47
$GPRTE,1,1,c,0*07
$IIRMC,092228,A,5759.116,N,01144.368,E,5.3,33.6,,0.0,E,A*3A
$IIRMA,A,5759.116,N,01144.368,E,,,5.3,33.6,0.0,E,A*3B
$IIMTW,16.8,C*1C
$IIVLW,2354.946,N,2338.561,N*4E
$IIVHW,,T,33.0,M,5.8,N,10.8,K*7F
$IIHDG,33.0,0,E,0.0,E*67
$IIDPT,16.0,0.4,100.0*70
!AIVDM,1,1,,A,13u=gHPqkoPlvqDQ8njnwm`p0hA5,0*3C
!AIVDM,1,1,,A,33o<4H0OiP0mv:<Q=PW7@Ufp00si,0*27
!AIVDO,1,1,,,B3uBrjP0=@=Klt`Boi<IKwfUsP06,0*33
!AIVDM,1,1,,A,19NSDN53AO0mv1jQ=Nb7G64t0HA>,0*00
$IIRMC,092228,A,5759.116,N,01144.368,E,5.3,33.6,,0.0,E,A*3A
$IIRMA,A,5759.117,N,01144.368,E,,,5.3,33.6,0.0,E,A*3A
$IIMTW,16.8,C*1C
$IIVLW,2354.947,N,2338.563,N*4D
$IIVHW,,T,32.0,M,5.8,N,10.8,K*7E
$IIHDG,31.0,0,E,0.0,E*65
$IIRSA,4,A,,*35
$IIDPT,16.2,0.4,100.0*72
$GPRMC,092230,A,5759.119,N,01144.370,E,005.2,034.1,200715,000.0,E*7F
$GPRMB,A,,,,,,,,,,,,V*71
$GPGGA,092230,5759.119,N,01144.370,E,1,06,1.9,2.9,M,39.4,M,,*40
$IIRMC,092228,A,5759.117,N,01144.368,E,5.3,33.6,,0.0,E,A*3B
$IIXDR,C,20.5,C,AIRT,*75
$IIRMA,A,5759.117,N,01144.368,E,,,5.3,33.6,0.0,E,A*3A
$IIMTW,16.8,C*1C
$IIVLW,2354.949,N,2338.565,N*45
!AIVDO,1,1,,,B3uBrjP0<h=Km5`BoitIGwg5sP06,0*7F
$IIVHW,,T,32.0,M,5.7,N,10.6,K*7F
$IIHDG,32.0,0,E,0.0,E*66
$IIDPT,15.6,0.4,100.0*75
$GPGSA,A,3,02,,12,14,,24,25,32,,,,,2.7,1.9,2.0*39
$GPGSV,2,1,08,02,21,120,45,06,29,080,00,12,86,124,53,14,41,275,43*7F
$GPGSV,2,2,08,17,13,044,00,24,45,150,43,25,49,259,47,32,10,328,46*7D
$PGRME,19.0,M,19.8,M,27.4,M*17
$GPGLL,5759.119,N,01144.371,E,092230,A*22
$PGRMZ,9,f,3*12
$PGRMM,WGS 84*06
$GPBOD,,T,,M,,*47
$GPRTE,1,1,c,0*07
$IIRMC,092230,A,5759.119,N,01144.370,E,5.2,34.1,,0.0,E,A*34
$IIRMA,A,5759.119,N,01144.370,E,,,5.2,34.1,0.0,E,A*3C
$IIMTW,16.8,C*1C
$IIVLW,2354.95,N,2338.565,N*7D
$IIVHW,,T,33.0,M,5.5,N,10.3,K*79
$IIHDG,32.0,0,E,0.0,E*66
$IIDPT,15.0,0.4,100.0*73
$IIRSA,2,A,,*33
!AIVDM,1,1,,B,13u=gHP43VPlvqDQ8nAnv5`t0U9H,0*55
$GPRMC,092231.00,A,5759.12098,N,01144.37398,E,5.067,34.15,200715,,,A*59
!AIVDM,1,1,,B,802R5Ph0GhF;L9`luVREQ8j;iN06EuOwgwl?wnSwe7wwwwwwsAwwnSomwvwt,0*5D
!AIVDO,1,1,,,B3uBrjP0<P=Km=`BojTEGwgUsP06,0*00
!AIVDO,1,1,,B,B3uBrjP0<P=Km=`BojTEGwgUkP06,0*5A
!AIVDM,1,1,,A,13bvpB001g0lOn@Q7Fn8t7Bv00SF,0*7D
$IIRMC,092230,A,5759.119,N,01144.371,E,5.2,34.1,,0.0,E,A*35
$IIRMA,A,5759.119,N,01144.371,E,,,5.2,34.1,0.0,E,A*3D
$IIMTW,16.8,C*1C
$IIVLW,2354.951,N,2338.566,N*4F
$IIVHW,,T,29.0,M,5.5,N,10.2,K*73
$IIHDG,29.0,0,E,0.0,E*6C
$GPGBS,092231.00,2.0,1.6,3.3,,,,*4F
$IIDPT,15.0,0.4,100.0*73
!AIVDM,2,1,9,A,53u=gHP00001<aUB2210ThuB3OCN1<F22222220j1@73240Ht3h000000000,0*1A
!AIVDM,2,2,9,A,00000000002,2*2F
$GPRMC,092232,A,5759.120,N,01144.372,E,005.1,034.6,200715,000.0,E*71
$GPRMB,A,,,,,,,,,,,,V*71
$GPGGA,092232,5759.121,N,01144.373,E,1,06,1.9,2.8,M,39.4,M,,*4B
!AIVDM,1,1,,B,402R3cQuur9FO0o<l:Q0lDi0059H,0*53
$IIRMC,092230,A,5759.119,N,01144.371,E,5.2,34.1,,0.0,E,A*35
$IIRMA,A,5759.119,N,01144.371,E,,,5.2,34.1,0.0,E,A*3D
$IIMTW,16.8,C*1C
$IIVLW,2354.952,N,2338.567,N*4D
$IIVHW,,T,30.0,M,5.5,N,10.2,K*7B
!AIVDM,1,1,,B,802R5Ph0GhFSUqbi6fREgwvlFR06EuOwiOl?wnSwe7wwwwwwsAwwnSomwvwt,0*27
!AIVDO,1,1,,,B3uBrjP0<@=KmD8BokHBswh5sP06,0*70
$IIHDG,29.0,0,E,0.0,E*6C
$GPGSA,A,3,02,,12,14,,24,25,32,,,,,2.7,1.9,2.0*39
$GPGSV,2,1,08,02,21,120,44,06,29,080,00,12,86,124,54,14,41,275,47*7D
$GPGSV,2,2,08,17,13,044,00,24,45,150,45,25,49,259,48,32,10,328,47*75
$PGRME,19.0,M,19.8,M,27.4,M*17
$IIDPT,14.9,0.4,100.0*7B
$IIRSA,0,A,,*31
$GPGLL,5759.121,N,01144.373,E,092232,A*29
$PGRMZ,10,f,3*2A
$PGRMM,WGS 84*06
$GPBOD,,T,,M,,*47
$GPRTE,1,1,c,0*07
$IIRMC,092232,A,5759.121,N,01144.373,E,5.1,34.6,,0.0,E,A*3A
$IIRMA,A,5759.121,N,01144.373,E,,,5.1,34.6,0.0,E,A*30
$IIMTW,16.8,C*1C
$IIVLW,2354.952,N,2338.568,N*42
$IIVHW,,T,30.0,M,5.5,N,10.3,K*7A
$IIHDG,30.0,0,E,0.0,E*64
$IIDPT,14.8,0.4,100.0*7A
!AIVDM,1,1,,A,802R5Ph0GhDs2Qbn?fREQQ1deV06EuOwgwl?wnSwe7wwwwwwsAwwnSomwvwt,0*01
!AIVDO,1,1,,,B3uBrjP0<P=KmJ`Bol4DgwhUwP06,0*3B
!AIVDM,1,1,,A,13u=gHPq3`PlvqlQ8mPFr5S20`CW,0*16
!AIVDM,1,1,,B,802R5Ph0GhDs2Qbn?fREQQ1deV06EuOwgwl?wnSwe7wwwwwwsAwwnSomwvwt,0*02
$IIRMC,092232,A,5759.121,N,01144.373,E,5.1,34.6,,0.0,E,A*3A
$IIRMA,A,5759.121,N,01144.373,E,,,5.1,34.6,0.0,E,A*30
$IIMTW,16.7,C*13
$IIVLW,2354.954,N,2338.569,N*45
$IIVHW,,T,29.0,M,5.4,N,10.0,K*70
$IIHDG,30.0,0,E,0.0,E*64
$IIDPT,14.9,0.4,100.0*7B
$GPRMC,092234,A,5759.123,N,01144.376,E,005.1,034.7,200715,000.0,E*71
$GPRMB,A,,,,,,,,,,,,V*71
$GPGGA,092234,5759.123,N,01144.376,E,1,06,1.9,2.9,M,39.4,M,,*4B
!AIVDM,1,1,,B,13v5NH001B0mDf:Q9Bvk:BS60@D4,0*7E
$IIRMC,092232,A,5759.121,N,01144.373,E,5.1,34.6,,0.0,E,A*3A
$IIRMA,A,5759.121,N,01144.373,E,,,5.1,34.6,0.0,E,A*30
$IIMTW,16.8,C*1C
$IIRSA,-2,A,,*1e
$IIVLW,2354.954,N,2338.57,N*7D
$IIVHW,,T,30.0,M,5.4,N,10.1,K*79
!AIVDO,1,1,,,B3uBrjP0<P=KmR8BollFCwi5wP06,0*64
$GPGSA,A,3,02,,12,14,,24,25,32,,,,,2.7,1.9,2.0*39
$GPGSV,2,1,08,02,21,120,46,06,29,080,00,12,86,124,53,14,41,275,47*78
$GPGSV,2,2,08,17,13,044,00,24,45,150,45,25,49,259,52,32,10,328,45*7C
$PGRME,19.0,M,19.8,M,27.4,M*17
$IIHDG,30.0,0,E,0.0,E*64
$IIDPT,15.2,0.4,100.0*71
$GPGLL,5759.124,N,01144.377,E,092234,A*2E
$PGRMZ,10,f,3*2A
$PGRMM,WGS 84*06
$GPBOD,,T,,M,,*47
$GPRTE,1,1,c,0*07
!AIVDM,1,1,,A,13M40b00010mTvVQ<INnfk;20HDR,0*49
$IIRMC,092234,A,5759.123,N,01144.376,E,5.1,34.7,,0.0,E,A*3A
$IIRMA,A,5759.123,N,01144.376,E,,,5.1,34.7,0.0,E,A*36
$IIMTW,16.8,C*1C
$IIVLW,2354.957,N,2338.572,N*4C
$GPRMC,092235.00,A,5759.12557,N,01144.37962,E,5.100,37.05,200715,,,A*56
$IIVHW,,T,30.0,M,5.5,N,10.3,K*7A
$IIHDG,31.0,0,E,0.0,E*65
$IIDPT,15.5,0.4,100.0*76
!AIVDO,1,1,,,B3uBrjP0<h=Kmb8BomLG;wiUwP06,0*54
!AIVDM,1,1,,B,13u=gHPq3bPlvr8Q8m?nq5U40`Di,0*3D
$GPGBS,092235.00,1.9,1.6,3.3,,,,*41
$IIRMC,092234,A,5759.124,N,01144.377,E,5.1,34.7,,0.0,E,A*3C
$IIRMA,A,5759.124,N,01144.377,E,,,5.1,34.7,0.0,E,A*30
$IIMTW,16.8,C*1C
$IIVLW,2354.958,N,2338.574,N*45
$IIVHW,,T,32.0,M,5.6,N,10.3,K*7B
$IIHDG,32.0,0,E,0.0,E*66
$IIDPT,15.3,0.4,100.0*70
$IIRSA,-4,A,,*18
$GPRMC,092236,A,5759.125,N,01144.378,E,005.0,034.8,200715,000.0,E*75
$GPRMB,A,,,,,,,,,,,,V*71
$GPGGA,092236,5759.125,N,01144.378,E,1,06,1.9,2.8,M,39.4,M,,*40
$IIRMC,092234,A,5759.124,N,01144.377,E,5.1,34.7,,0.0,E,A*3C
$IIRMA,A,5759.125,N,01144.378,E,,,5.0,34.8,0.0,E,A*30
$IIMTW,16.8,C*1C
$IIVLW,2354.958,N,2338.574,N*45
$GPGSA,A,3,02,,12,14,,24,25,32,,,,,2.7,1.9,2.0*39
$GPGSV,2,1,08,02,21,120,47,06,29,080,00,12,86,124,54,14,41,275,47*7E
$GPGSV,2,2,08,17,13,044,00,24,45,150,45,25,49,259,51,32,10,328,47*7D
$PGRME,19.0,M,19.8,M,27.4,M*17
!AIVDO,1,1,,,B3uBrjP0<P=Kmi`Bon8ESwj5wP06,0*41
$GPGLL,5759.126,N,01144.379,E,092236,A*20
$IIVHW,,T,30.0,M,5.5,N,10.1,K*78
$PGRMZ,8,f,3*13
$IIHDG,30.0,0,E,0.0,E*64
$PGRMM,WGS 84*06
$IIXDR,C,22.5,C,AIRT,*77
!AIVDM,1,1,,A,B39dE`P0C`=?Tr`B45T6Kwj5oP06,0*53
$GPBOD,,T,,M,,*47
$IIDPT,15.5,0.4,100.0*76
$GPRTE,1,1,c,0*07
$IIRMC,092236,A,5759.125,N,01144.378,E,5.0,34.8,,0.0,E,A*3E
$IIRMA,A,5759.125,N,01144.378,E,,,5.0,34.8,0.0,E,A*30
$IIMTW,16.8,C*1C
$IIVLW,2354.959,N,2338.575,N*45
$IIVHW,,T,30.0,M,5.4,N,10.0,K*78
$IIHDG,30.0,0,E,0.0,E*64
!AIVDM,1,1,,B,802R5Ph0GhDs2Qbn?fREQQ1deV06EuOwgwl?wnSwe7wwwwwwsAwwnSomwvwt,0*02
$IIDPT,15.4,0.4,100.0*77
!AIVDO,1,1,,,B3uBrjP0<@=Kmq8BonpDCwjUwP06,0*28
$IIRMC,092236,A,5759.126,N,01144.379,E,5.0,34.8,,0.0,E,A*3C
$IIRMA,A,5759.126,N,01144.379,E,,,5.0,34.8,0.0,E,A*32
$IIMTW,16.8,C*1C
$IIRSA,-6,A,,*1a
$IIVLW,2354.96,N,2338.576,N*7C
$IIVHW,,T,32.0,M,5.3,N,9.8,K*4D
$IIHDG,32.0,0,E,0.0,E*66
$GPRMC,092238,A,5759.127,N,01144.381,E,004.9,034.4,200715,000.0,E*7B
$GPRMB,A,,,,,,,,,,,,V*71
$GPGGA,092238,5759.127,N,01144.381,E,1,06,1.9,2.4,M,39.4,M,,*46
$IIDPT,15.4,0.4,100.0*77
$GPGSA,A,3,02,,12,14,,24,25,32,,,,,2.7,1.9,2.0*39
$GPGSV,2,1,08,02,21,120,45,06,29,080,00,12,86,124,53,14,41,275,45*79
$GPGSV,2,2,08,17,13,044,00,24,44,151,44,25,49,259,51,32,10,328,47*7C
$PGRME,19.0,M,19.8,M,27.4,M*17
!AIVDO,1,1,,,B3uBrjP0<@=Kn0`BooTCgwk5wP06,0*55
!AIVDM,1,1,,B,13uAC7POi;0n;idQA0@KU9?>2<0`,0*5A
$IIRMC,092236,A,5759.126,N,01144.379,E,5.0,34.8,,0.0,E,A*3C
$IIRMA,A,5759.127,N,01144.381,E,,,4.9,34.4,0.0,E,A*30
$IIMTW,16.8,C*1C
$IIVLW,2354.961,N,2338.577,N*4C
$IIVHW,,T,32.0,M,5.2,N,9.7,K*43
$GPGLL,5759.128,N,01144.382,E,092238,A*24
$PGRMZ,8,f,3*13
$PGRMM,WGS 84*06
$GPBOD,,T,,M,,*47
$IIHDG,32.0,0,E,0.0,E*66
!AIVDM,1,1,,B,19NSDN50AO0muvrQ=MfoNn5>00S`,0*2D
$GPRTE,1,1,c,0*07
$IIDPT,15.4,0.4,100.0*77
!AIVDM,1,1,,B,33o<4H0OiO0mv9BQ=O`o=Eo:00s1,0*40
$GPRMC,092239.00,A,5759.13006,N,01144.38562,E,4.912,39.21,200715,,,A*5B
$IIRMC,092238,A,5759.127,N,01144.381,E,4.9,34.4,,0.0,E,A*30
$IIRMA,A,5759.127,N,01144.381,E,,,4.9,34.4,0.0,E,A*30
$IIMTW,16.8,C*1C
$IIVLW,2354.963,N,2338.579,N*40
$IIVHW,,T,29.0,M,5.3,N,9.7,K*48
$IIHDG,27.0,0,E,0.0,E*62
$IIRSA,-8,A,,*14
$IIDPT,15.2,0.4,100.0*71
!AIVDM,1,1,,A,802R5Ph0GhEUKQaWKvREgput?PC6EuFKB22KwnP00I?wwwwwsAwwnSjerAwt,0*0A
!AIVDO,1,1,,,B3uBrjP0<@=Kn88Bop@HSwkUwP06,0*51
$GPGBS,092239.00,2.0,1.6,3.3,,,,*47
$IIRMC,092238,A,5759.128,N,01144.382,E,4.9,34.4,,0.0,E,A*3C
$IIRMA,A,5759.128,N,01144.382,E,,,4.9,34.4,0.0,E,A*3C
$IIMTW,16.8,C*1C
$IIVLW,2354.964,N,2338.58,N*71
$IIVHW,,T,28.0,M,5.4,N,10.0,K*71
$GPRMC,092240,A,5759.129,N,01144.384,E,004.8,034.4,200715,000.0,E*7E
$GPRMB,A,,,,,,,,,,,,V*71
$GPGGA,092240,5759.130,N,01144.384,E,1,06,1.9,2.3,M,39.4,M,,*4D
$IIHDG,28.0,0,E,0.0,E*6D
$IIDPT,15.0,0.4,100.0*73
!AIVDM,1,1,,A,802R5Ph0GhDgKqbgmfREQ`qrgF06EuOwdgl?wnSwe7wwwwwwsAwwnSomwvwt,0*71
$GPGSA,A,3,02,,12,14,,24,25,32,,,,,2.7,1.9,2.0*39
$GPGSV,2,1,08,02,21,120,46,06,29,080,00,12,86,124,52,14,41,275,47*79
$GPGSV,2,2,08,17,13,044,00,24,44,151,44,25,49,259,49,32,10,328,49*7B
$PGRME,19.0,M,19.8,M,27.4,M*17
!AIVDM,1,1,,B,802R5Ph0GhDgKqbgmfREQ`qrgF06EuOwdgl?wnSwe7wwwwwwsAwwnSomwvwt,0*72
!AIVDO,1,1,,,B3uBrjP0<P=Kn@8BoppHwwl5wP06,0*4A
$GPGLL,5759.130,N,01144.385,E,092240,A*25
$IIRMC,092240,A,5759.130,N,01144.384,E,4.8,34.4,,0.0,E,A*3D
$PGRMZ,7,f,3*1C
$PGRMM,WGS 84*06
$IIRMA,A,5759.130,N,01144.384,E,,,4.8,34.4,0.0,E,A*32
$IIMTW,16.8,C*1C
$IIVLW,2354.965,N,2338.58,N*70
$GPBOD,,T,,M,,*47
$IIVHW,,T,28.0,M,5.4,N,10.0,K*71
$IIHDG,28.0,0,E,0.0,E*6D
$GPRTE,1,1,c,0*07
$IIDPT,14.9,0.4,100.0*7B
$IIRSA,-10,A,,*2d
!AIVDM,1,1,,A,13u=gHP9CbPlvrVQ8kdo5Eg@0l0W,0*00
$IIRMC,092240,A,5759.130,N,01144.384,E,4.8,34.4,,0.0,E,A*3D
$IIRMA,A,5759.130,N,01144.384,E,,,4.8,34.4,0.0,E,A*32
$IIMTW,16.8,C*1C
$IIVLW,2354.965,N,2338.581,N*41
$IIVHW,,T,29.0,M,5.5,N,10.1,K*70
$IIHDG,29.0,0,E,0.0,E*6C
!AIVDO,1,1,,,B3uBrjP0=0=KnG`BoqTCgwlUwP06,0*2A
$IIDPT,14.8,0.4,100.0*7A
!AIVDM,1,1,,B,13bvpB001g0lO`RQ7F3`toCB0D1:,0*60
!AIVDM,1,1,,A,802R5Ph0GhFJ<i`TdVREQ0ir?B06EuOwgqwKwnSwe7wwwwwwsAwwnSomwvwt,0*57
!AIVDM,1,1,,B,802R5Ph0GhFJ<i`TdVREQ0ir?B06EuOwgqwKwnSwe7wwwwwwsAwwnSomwvwt,0*54
!AIVDM,1,1,,A,802R5Ph0GhDs2Qbn?fREQQ1deV06EuOwgwl?wnSwe7wwwwwwsAwwnSomwvwt,0*01
$IIRMC,092240,A,5759.130,N,01144.385,E,4.8,34.4,,0.0,E,A*3C
$IIRMA,A,5759.130,N,01144.385,E,,,4.8,34.4,0.0,E,A*33
$IIMTW,16.8,C*1C
$IIVLW,2354.967,N,2338.582,N*40
$GPRMC,092242,A,5759.132,N,01144.387,E,004.9,034.9,200715,000.0,E*79
$GPRMB,A,,,,,,,,,,,,V*71
$GPGGA,092242,5759.132,N,01144.387,E,1,06,1.9,2.1,M,39.4,M,,*4C
$IIVHW,,T,29.0,M,5.5,N,10.2,K*73
$IIHDG,29.0,0,E,0.0,E*6C
$IIDPT,14.8,0.4,100.0*7A
!AIVDM,1,1,,A,33o<4H0OiO0mv8dQ=O?G?EuB0000,0*31
!AIVDM,1,1,,A,402R3cQuur9Fa0o<l8Q0lDi0059H,0*7C
!AIVDM,1,1,,B,D02R3dA=0Nfq6DO6D1,4*09
$GPGSA,A,3,02,,12,14,,24,25,32,,,,,2.7,1.9,2.0*39
$GPGSV,2,1,08,02,21,120,46,06,29,080,00,12,86,124,52,14,41,275,46*78
$GPGSV,2,2,08,17,13,044,00,24,44,151,47,25,50,259,48,32,10,328,47*7F
$PGRME,19.0,M,19.8,M,27.4,M*17
!AIVDM,1,1,,A,802R5Ph0GhE@@iaQeVREQq1pg606EuOwgqvkwnSwe7wwwwwwsAwwnSomwvwt,0*31
$GPGLL,5759.132,N,01144.387,E,092242,A*27
$PGRMZ,7,f,3*1C
$IIRSA,-12,A,,*2f
$PGRMM,WGS 84*06
!AIVDM,1,1,,B,802R5Ph0GhE@@iaQeVREQq1pg606EuOwgqvkwnSwe7wwwwwwsAwwnSomwvwt,0*32
!AIVDO,1,1,,,B3uBrjP0=0=KnO8BorHCGwm5sP06,0*20
$GPBOD,,T,,M,,*47
$GPRTE,1,1,c,0*07
$IIRMC,092242,A,5759.132,N,01144.387,E,4.9,34.9,,0.0,E,A*32
$IIRMA,A,5759.132,N,01144.387,E,,,4.9,34.9,0.0,E,A*3F
$IIMTW,16.8,C*1C
$IIVLW,2354.968,N,2338.583,N*4E
$IIVHW,,T,31.0,M,5.6,N,10.4,K*7F
$IIHDG,31.0,0,E,0.0,E*65
$IIDPT,15.1,0.4,100.0*72
!AIVDM,1,1,,A,D02R3cPdlNfq4LO6D:,4*18
$GPRMC,092243.00,A,5759.13460,N,01144.39170,E,5.211,33.80,200715,,,A*5C
!AIVDM,1,1,,B,13u=gHP;kiPlvr8Q8k<7CUoD0U9H,0*09
$IIRMC,092242,A,5759.132,N,01144.387,E,4.9,34.9,,0.0,E,A*32
$IIRMA,A,5759.132,N,01144.387,E,,,4.9,34.9,0.0,E,A*3F
$IIMTW,16.8,C*1C
$IIVLW,2354.968,N,2338.584,N*49
$IIVHW,,T,31.0,M,5.6,N,10.5,K*7E
$IIHDG,31.0,0,E,0.0,E*65
!AIVDO,1,1,,,B3uBrjP0=0=KnV`Bos8E;wmUwP06,0*0E
$IIDPT,15.1,0.4,100.0*72
$GPGBS,092243.00,1.9,1.6,3.3,,,,*40
$GPRMC,092244,A,5759.134,N,01144.389,E,005.0,034.9,200715,000.0,E*7F
$GPRMB,A,,,,,,,,,,,,V*71
$GPGGA,092244,5759.134,N,01144.389,E,1,06,1.9,1.9,M,39.4,M,,*49
$IIRMC,092242,A,5759.132,N,01144.387,E,4.9,34.9,,0.0,E,A*32
$IIRMA,A,5759.132,N,01144.387,E,,,4.9,34.9,0.0,E,A*3F
$IIMTW,16.8,C*1C
$IIVLW,2354.971,N,2338.585,N*40
$IIVHW,,T,34.0,M,5.5,N,10.2,K*7F
$IIHDG,34.0,0,E,0.0,E*60
$IIRSA,-14,A,,*29
$IIDPT,15.1,0.4,100.0*72
$GPGSA,A,3,02,,12,14,,24,25,32,,,,,2.7,1.9,2.0*39
$GPGSV,2,1,08,02,21,120,45,06,29,080,00,12,86,124,54,14,41,275,44*7F
$GPGSV,2,2,08,17,13,044,00,24,44,151,45,25,50,259,48,32,10,328,48*72
$PGRME,19.0,M,19.8,M,27.4,M*17
$GPGLL,5759.135,N,01144.391,E,092244,A*21
$PGRMZ,8,f,3*13
$PGRMM,WGS 84*06
!AIVDM,2,1,0,A,53v5NH42D6VE<I0n2208U<tr222222222222220l1@B754rdR>ADhsU5Ap4m,0*48
!AIVDM,2,2,0,A,1CUCQlmCQ82,2*38
!AIVDO,1,1,,,B3uBrjP0<P=Knf`BoslGCwn5wP06,0*12
!AIVDM,1,1,,A,802R5Ph0GhDgKqbgmfREQ`qrgF06EuOwdgl?wnSwe7wwwwwwsAwwnSomwvwt,0*71
$GPBOD,,T,,M,,*47
$GPRTE,1,1,c,0*07
!AIVDM,1,1,,B,B39JUq00>8=EtJ8BE?Djkwn5oP06,0*13
$IIRMC,092244,A,5759.134,N,01144.389,E,5.0,34.9,,0.0,E,A*34
$IIRMA,A,5759.134,N,01144.389,E,,,5.0,34.9,0.0,E,A*3F
$IIMTW,16.8,C*1C
$IIVLW,2354.971,N,2338.587,N*42
!AIVDM,1,1,,B,13M40b00010mTvbQ<INo93;F0L0k,0*45
$IIVHW,,T,34.0,M,5.4,N,10.0,K*7C
$IIHDG,34.0,0,E,0.0,E*60
$IIDPT,15.4,0.4,100.0*77
!AIVDM,1,1,,B,33o<4H0OiP0mv8HQ=O57@F1F013P,0*25
!AIVDM,1,1,,A,402R3dAuur9Fd0n7ABQIf9A00@JN,0*15
!AIVDM,1,1,,A,13v5NH001B0mDtfQ9C7k<BUL059H,0*7D
!AIVDM,1,1,,A,13u=gHP;3OPlvq:Q8jcoE5qH0`J`,0*69
!AIVDM,1,1,,B,802R5Ph0GhD0sQc6=6REgwvlFR06EuOwgwl?wnSwe7wwww3A;AwwnSjLwvwt,0*6D
!AIVDM,1,1,,A,802R5Ph0GhD0sQc6=6REgwvlFR06EuOwgwl?wnSwe7wwww3A;AwwnSjLwvwt,0*6E
$IIRMC,092244,A,5759.134,N,01144.389,E,5.0,34.9,,0.0,E,A*34
$IIRMA,A,5759.135,N,01144.391,E,,,5.0,34.9,0.0,E,A*37
$IIMTW,16.8,C*1C
$IIRSA,-16,A,,*2b<0x0D>
$IIVLW,2354.972,N,2338.588,N*4E
!AIVDM,1,1,,B,802R5Ph0GhFJ<i`TdVREQ0ir?B06EuOwgqwKwnSwe7wwwwwwsAwwnSomwvwt,0*54
!AIVDO,1,1,,,B3uBrjP0<0=Knn`BotLFKwnUsP06,0*30
$IIVHW,,T,30.0,M,5.4,N,10.0,K*78
$IIHDG,30.0,0,E,0.0,E*64
!AIVDM,1,1,,A,802R5Ph0GhFJ<i`TdVREQ0ir?B06EuOwgqwKwnSwe7wwwwwwsAwwnSomwvwt,0*57
$IIDPT,15.5,0.4,100.0*76
$GPRMC,092246,A,5759.136,N,01144.393,E,005.0,035.3,200715,000.0,E*7F
$GPRMB,A,,,,,,,,,,,,V*71
$GPGGA,092246,5759.137,N,01144.393,E,1,06,1.9,2.3,M,39.4,M,,*4A
$IIRMC,092244,A,5759.135,N,01144.391,E,5.0,34.9,,0.0,E,A*3C
$IIRMA,A,5759.135,N,01144.391,E,,,5.0,34.9,0.0,E,A*37
$IIMTW,16.8,C*1C
$IIVLW,2354.973,N,2338.588,N*4F
$IIVHW,,T,31.0,M,5.2,N,9.6,K*41
!AIVDM,1,1,,B,13u=KCPP010mBPrQ2aWpm?wJ0L1:,0*66
$IIHDG,31.0,0,E,0.0,E*65
$GPGSA,A,3,02,,12,14,,24,25,32,,,,,2.7,1.9,2.0*39
$GPGSV,2,1,08,02,21,120,46,06,29,080,00,12,86,124,53,14,41,275,43*7C
$GPGSV,2,2,08,17,13,044,00,24,44,151,47,25,50,259,44,32,10,328,46*72
$PGRME,19.0,M,19.8,M,27.4,M*17
$IIDPT,15.5,0.4,100.0*76
$GPGLL,5759.137,N,01144.394,E,092246,A*24
$PGRMZ,8,f,3*13
$PGRMM,WGS 84*06
!AIVDM,1,1,,A,802R5Ph0GhE@@iaQeVREQq1pg606EuOwgqvkwnSwe7wwwwwwsAwwnSomwvwt,0*31
$GPBOD,,T,,M,,*47
!AIVDM,1,1,,B,802R5Ph0GhE@@iaQeVREQq1pg606EuOwgqvkwnSwe7wwwwwwsAwwnSomwvwt,0*32
!AIVDO,1,1,,,B3uBrjP0;h=Knu`Bou<E3wo5sP06,0*1F
$GPRTE,1,1,c,0*07
$IIRMC,092246,A,5759.137,N,01144.393,E,5.0,35.3,,0.0,E,A*35
$IIRMA,A,5759.137,N,01144.393,E,,,5.0,35.3,0.0,E,A*3C
$IIMTW,16.8,C*1C
$IIRSA,-18,A,,*25
$IIVLW,2354.974,N,2338.59,N*71
!AIVDM,1,1,,A,33u><@0OhdPmJcpQ0wp9@WoL0000,0*6D
$IIVHW,,T,32.0,M,5.1,N,9.5,K*42
$IIHDG,32.0,0,E,0.0,E*66
$GPRMC,092247.00,A,5759.13924,N,01144.39753,E,4.740,31.73,200715,,,A*5C
$IIDPT,15.5,0.4,100.0*76
!AIVDM,1,1,,B,13u=gHP7SLPlvp<Q8j<7BUsL0l0W,0*25
$IIRMC,092246,A,5759.137,N,01144.394,E,5.0,35.3,,0.0,E,A*32
$IIRMA,A,5759.137,N,01144.394,E,,,5.0,35.3,0.0,E,A*3B
$IIMTW,16.8,C*1C
$GPGBS,092247.00,1.9,1.6,3.3,,,,*44
$IIVLW,2354.975,N,2338.59,N*70
$IIVHW,,T,32.0,M,5.2,N,9.6,K*42
!AIVDO,1,1,,,B3uBrjP0;h=Ko3`Bov0CowoUsP06,0*6D
$IIHDG,32.0,0,E,0.0,E*66
$IIDPT,15.4,0.4,100.0*77
$GPRMC,092248,A,5759.138,N,01144.396,E,005.0,034.9,200715,000.0,E*71
$GPRMB,A,,,,,,,,,,,,V*71
$GPGGA,092248,5759.138,N,01144.396,E,1,06,1.9,2.5,M,39.4,M,,*48
$IIRMC,092246,A,5759.137,N,01144.394,E,5.0,35.3,,0.0,E,A*32
$IIRMA,A,5759.137,N,01144.394,E,,,5.0,35.3,0.0,E,A*3B
$IIMTW,16.8,C*1C
$IIVLW,2354.975,N,2338.591,N*41
$IIVHW,,T,29.0,M,5.3,N,9.8,K*47
$GPGSA,A,3,02,,12,14,,24,25,32,,,,,2.7,1.9,2.0*39
$GPGSV,2,1,08,02,21,120,47,06,29,080,00,12,86,124,51,14,41,275,46*7A
$GPGSV,2,2,08,17,13,044,00,24,44,151,47,25,50,259,45,32,10,328,46*73
$PGRME,19.0,M,19.8,M,27.4,M*17
$IIHDG,29.0,0,E,0.0,E*6C
$IIDPT,15.6,0.4,100.0*75
$GPGLL,5759.139,N,01144.397,E,092248,A*27
$PGRMZ,8,f,3*13
$PGRMM,WGS 84*06
$IIRSA,-20,A,,*2e
$GPBOD,,T,,M,,*47
!AIVDM,1,1,,B,802R5Ph0GhDgKqbgmfREQ`qrgF06EuOwdgl?wnSwe7wwwwwwsAwwnSomwvwt,0*72
!AIVDO,1,1,,,B3uBrjP0<@=Ko;8Bov`H;wp5sP06,0*62
$GPRTE,1,1,c,0*07
!AIVDM,1,1,,A,33o<4H0OiO0mv7@Q=Nd7Fn3N00tA,0*1D
$IIRMC,092248,A,5759.138,N,01144.396,E,5.0,34.9,,0.0,E,A*3A
$IIRMA,A,5759.138,N,01144.396,E,,,5.0,34.9,0.0,E,A*3D
$IIMTW,16.8,C*1C
$IIVLW,2354.978,N,2338.592,N*4F
$IIVHW,,T,30.0,M,5.3,N,9.9,K*4E
$IIHDG,30.0,0,E,0.0,E*64
$IIDPT,15.6,0.4,100.0*75
!AIVDM,1,1,,A,B3v3280000=Hds`BrG;7kwpUoP06,0*61
!AIVDM,1,1,,A,19NSDN51iP0musDQ=LUWOV7T00Rg,0*76
$IIRMC,092248,A,5759.139,N,01144.397,E,5.0,34.9,,0.0,E,A*3A
$IIRMA,A,5759.139,N,01144.397,E,,,5.0,34.9,0.0,E,A*3D
$IIMTW,16.8,C*1C
$IIVLW,2354.978,N,2338.594,N*49
$IIVHW,,T,30.0,M,5.3,N,9.9,K*4E
!AIVDM,1,1,,B,802R5Ph0GhD0sQc6=6REgwvlFR06EuOwgwl?wnSwe7wwww3A;AwwnSjLwvwt,0*6D
!AIVDO,1,1,,,B3uBrjP0<P=KoC`Bow@HOwpUsP06,0*67
$IIHDG,30.0,0,E,0.0,E*64
!AIVDM,1,1,,B,802R5Ph0GhFJ<i`TdVREQ0ir?B06EuOwgqwKwnSwe7wwwwwwsAwwnSomwvwt,0*54
$IIDPT,15.6,0.4,100.0*75
$GPRMC,092250,A,5759.141,N,01144.400,E,005.0,035.3,200715,000.0,E*75
$GPRMB,A,,,,,,,,,,,,V*71
$GPGGA,092250,5759.141,N,01144.400,E,1,06,1.9,2.9,M,39.4,M,,*4B
$GPGSA,A,3,02,,12,14,,24,25,32,,,,,2.7,1.9,2.0*39
$GPGSV,2,1,08,02,21,120,45,06,29,080,00,12,86,124,53,14,41,275,46*7A
$GPGSV,2,2,08,17,13,044,00,24,44,151,46,25,50,259,42,32,10,328,47*74
$PGRME,19.0,M,19.7,M,27.4,M*18
$IIRMC,092248,A,5759.139,N,01144.397,E,5.0,34.9,,0.0,E,A*3A
$IIRMA,A,5759.139,N,01144.397,E,,,5.0,34.9,0.0,E,A*3D
$IIMTW,16.8,C*1C
$IIRSA,-22,A,,*2c
$IIVLW,2354.979,N,2338.595,N*49
$IIVHW,,T,29.0,M,5.4,N,10.0,K*70
$IIHDG,29.0,0,E,0.0,E*6C
$GPGLL,5759.142,N,01144.401,E,092250,A*2A
$PGRMZ,10,f,3*2A
$PGRMM,WGS 84*06
$GPBOD,,T,,M,,*47
$IIDPT,15.3,0.4,100.0*70
!AIVDM,1,1,,A,802R5Ph0GhE@@iaQeVREQq1pg606EuOwgqvkwnSwe7wwwwwwsAwwnSomwvwt,0*31
$GPRTE,1,1,c,0*07
!AIVDM,1,1,,B,802R5Ph0GhE@@iaQeVREQq1pg606EuOwgqvkwnSwe7wwwwwwsAwwnSomwvwt,0*32
!AIVDO,1,1,,,B3uBrjP0<h=KoK`BowpEwwq5wP06,0*37
$IIRMC,092250,A,5759.141,N,01144.400,E,5.0,35.3,,0.0,E,A*3E
$IIRMA,A,5759.141,N,01144.400,E,,,5.0,35.3,0.0,E,A*30
$IIMTW,16.8,C*1C
$IIVLW,2354.98,N,2338.596,N*7C
$GPRMC,092251.00,A,5759.14335,N,01144.40379,E,4.913,32.27,200715,,,A*5E
$IIVHW,,T,33.0,M,5.2,N,9.7,K*42
!AIVDM,1,1,,B,13u=gHPoCdPlvnLQ8i<G=5kT0hN2,0*58
$IIHDG,33.0,0,E,0.0,E*67
$IIDPT,15.2,0.4,100.0*71
$GPGBS,092251.00,1.9,1.6,3.3,,,,*43
!AIVDM,1,1,,B,802R5Ph0GhF8MAb6anREgwvlFR06EuOwiOl?wnSwe7wwwwwwsAwwnSomwvwt,0*64
!AIVDO,1,1,,,B3uBrjP0<@=KoR`Bp0TD;wqUwP06,0*57
$IIRMC,092250,A,5759.142,N,01144.401,E,5.0,35.3,,0.0,E,A*3C
$IIRMA,A,5759.142,N,01144.401,E,,,5.0,35.3,0.0,E,A*32
$IIMTW,16.8,C*1C
$IIVLW,2354.981,N,2338.597,N*4C
$IIVHW,,T,34.0,M,5.1,N,9.5,K*44
$IIHDG,34.0,0,E,0.0,E*60
$GPRMC,092252,A,5759.143,N,01144.402,E,005.1,035.3,200715,000.0,E*76
$GPRMB,A,,,,,,,,,,,,V*71
$IIRSA,-24,A,,*2a
$GPGGA,092252,5759.144,N,01144.403,E,1,06,1.9,3.1,M,39.4,M,,*46
$IIDPT,15.2,0.4,100.0*71
!AIVDM,1,1,,B,402R3cQuur9Fk0o<l8Q0lDi00<59,0*01
$GPGSA,A,3,02,,12,14,,24,25,32,,,,,2.7,1.9,2.0*39
$GPGSV,2,1,08,02,21,120,45,06,29,080,00,12,86,124,53,14,41,275,45*79
$GPGSV,2,2,08,17,13,044,00,24,44,151,46,25,50,259,48,32,10,328,47*7E
$PGRME,19.0,M,19.7,M,27.4,M*18
$IIRMC,092250,A,5759.142,N,01144.401,E,5.0,35.3,,0.0,E,A*3C
$IIRMA,A,5759.144,N,01144.403,E,,,5.1,35.3,0.0,E,A*37
$IIMTW,16.8,C*1C
$IIVLW,2354.982,N,2338.598,N*40
$IIVHW,,T,31.0,M,5.1,N,9.4,K*40
$GPGLL,5759.144,N,01144.404,E,092252,A*2B
$PGRMZ,10,f,3*2A
$PGRMM,WGS 84*06
$GPBOD,,T,,M,,*47
$IIHDG,31.0,0,E,0.0,E*65
$GPRTE,1,1,c,0*07
$IIDPT,15.2,0.4,100.0*71
!AIVDO,1,1,,,B3uBrjP0<0=Koa`Bp1@ECwr5wP06,0*1B
!AIVDM,1,1,,A,13bvpB001g0lOH2Q7E6HtWC`0HO=,0*6A
!AIVDM,1,1,,A,13u=gHPpSdPlvmrQ8hdW<Ui`0l0`,0*5F
$IIRMC,092252,A,5759.144,N,01144.403,E,5.1,35.3,,0.0,E,A*3B
$IIRMA,A,5759.144,N,01144.403,E,,,5.1,35.3,0.0,E,A*37
$IIMTW,16.8,C*1C
$IIVLW,2354.983,N,2338.599,N*40
$IIVHW,,T,32.0,M,5.1,N,9.5,K*42
$IIHDG,32.0,0,E,0.0,E*66
$IIDPT,15.2,0.4,100.0*71
!AIVDM,1,1,,A,802R5Ph0GhFJ<i`TdVREQ0ir?B06EuOwgqwKwnSwe7wwwwwwsAwwnSomwvwt,0*57
!AIVDO,1,1,,,B3uBrjP0;h=Koh`Bp1tEowrUsP06,0*31
$IIRMC,092252,A,5759.144,N,01144.404,E,5.1,35.3,,0.0,E,A*3C
$IIRMA,A,5759.144,N,01144.404,E,,,5.1,35.3,0.0,E,A*30
$IIMTW,16.9,C*1D
$IIRSA,-26,A,,*28
$IIVLW,2354.983,N,2338.599,N*40
$IIVHW,,T,30.0,M,5.2,N,9.5,K*43
$GPRMC,092254,A,5759.146,N,01144.406,E,005.0,035.9,200715,000.0,E*7A
$GPRMB,A,,,,,,,,,,,,V*71
$GPGGA,092254,5759.146,N,01144.406,E,1,06,1.9,3.1,M,39.4,M,,*47
$IIHDG,30.0,0,E,0.0,E*64
$IIDPT,15.1,0.4,100.0*72
!AIVDM,1,1,,B,13v5NH001B0mE8PQ9C?3=RSf0@Ol,0*4F
$GPGSA,A,3,02,,12,14,,24,25,32,,,,,2.7,1.9,2.0*39
$GPGSV,2,1,08,02,21,120,47,06,29,080,00,12,86,124,52,14,41,275,44*7B
$GPGSV,2,2,08,17,13,044,00,24,44,151,47,25,50,259,49,32,10,328,47*7E
$PGRME,19.0,M,19.7,M,27.4,M*18
$GPGLL,5759.146,N,01144.407,E,092254,A*2C
$PGRMZ,10,f,3*2A
$PGRMM,WGS 84*06
$GPBOD,,T,,M,,*47
$IIRMC,092254,A,5759.146,N,01144.406,E,5.0,35.9,,0.0,E,A*31
$IIRMA,A,5759.146,N,01144.406,E,,,5.0,35.9,0.0,E,A*3B
$IIMTW,16.9,C*1D
$IIVLW,2354.986,N,2338.602,N*44
$IIVHW,,T,29.0,M,5.1,N,9.4,K*49
!AIVDM,1,1,,A,802R5Ph0GhE@@iaQeVREQq1pg606EuOwgqvkwnSwe7wwwwwwsAwwnSomwvwt,0*31
$GPRTE,1,1,c,0*07
!AIVDM,1,1,,B,802R5Ph0GhE@@iaQeVREQq1pg606EuOwgqvkwnSwe7wwwwwwsAwwnSomwvwt,0*32
$IIHDG,29.0,0,E,0.0,E*6C
$IIDPT,15.0,0.4,100.0*73
!AIVDO,1,1,,,B3uBrjP0<@=Kop8Bp2`Hcws5wP06,0*2D
!AIVDM,1,1,,B,13u=gHP1CQPlvmFQ8h<G<5kd0l0`,0*22
!AIVDM,1,1,,B,402R3dAuur9Fn0n7AFQIf9A008PE,0*71
$GPRMC,092255.00,A,5759.14767,N,01144.40965,E,4.871,35.23,200715,,,A*58
!AIVDM,1,1,,A,33o<4H001P0mv4VQ=MvWP63d20w0,0*55
$IIRMC,092254,A,5759.146,N,01144.406,E,5.0,35.9,,0.0,E,A*31
$IIRMA,A,5759.146,N,01144.406,E,,,5.0,35.9,0.0,E,A*3B
$IIMTW,16.8,C*1C
$IIRSA,-28,A,,*26
$IIVLW,2354.986,N,2338.602,N*44
$IIVHW,,T,34.0,M,5.2,N,9.7,K*45
!AIVDM,1,1,,A,B3@oDQh0=8=MNq`C6W9qkwsUoP06,0*76
$IIHDG,34.0,0,E,0.0,E*60
$IIDPT,14.8,0.4,100.0*7A
$GPGBS,092255.00,2.0,1.6,3.3,,,,*4D
!AIVDO,1,1,,,B3uBrjP0<0=Kp08Bp3@F3wsUwP06,0*1D
!AIVDM,1,1,,B,13u=KCPP010mBPtQ2aWltgwf08Pl,0*52
$IIRMC,092254,A,5759.146,N,01144.407,E,5.0,35.9,,0.0,E,A*30
$IIRMA,A,5759.146,N,01144.407,E,,,5.0,35.9,0.0,E,A*3A
$IIMTW,16.8,C*1C
$IIVLW,2354.987,N,2338.603,N*44
$GPRMC,092256,A,5759.148,N,01144.409,E,005.0,036.0,200715,000.0,E*73
$GPRMB,A,,,,,,,,,,,,V*71
$GPGGA,092256,5759.147,N,01144.409,E,1,06,1.9,3.2,M,39.4,M,,*48
$IIVHW,,T,32.0,M,5.2,N,9.7,K*43
$IIHDG,32.0,0,E,0.0,E*66
$IIDPT,14.9,0.4,100.0*7B
$GPGSA,A,3,02,,12,14,,24,25,32,,,,,2.7,1.9,2.0*39
$GPGSV,2,1,08,02,21,120,46,06,29,080,00,12,86,124,54,14,41,275,44*7C
$GPGSV,2,2,08,17,13,044,00,24,44,151,46,25,50,259,47,32,10,328,46*70
$PGRME,19.0,M,19.7,M,27.4,M*18
$GPGLL,5759.148,N,01144.409,E,092256,A*2E
$PGRMZ,10,f,3*2A
$PGRMM,WGS 84*06
$GPBOD,,T,,M,,*47
$IIRMC,092256,A,5759.147,N,01144.409,E,5.0,36.0,,0.0,E,A*37
$IIRMA,A,5759.147,N,01144.409,E,,,5.0,36.0,0.0,E,A*3F
$IIMTW,16.8,C*1C
$IIVLW,2354.988,N,2338.604,N*4C
$IIVHW,,T,32.0,M,5.2,N,9.6,K*42
$GPRTE,1,1,c,0*07
$IIHDG,32.0,0,E,0.0,E*66
$IIRSA,-30,A,,*2f
!AIVDM,1,1,,A,D02R3d@C<Nfq6DO6D=,4*75
!AIVDO,1,1,,,B3uBrjP0<P=Kp7`Bp40E;wt5wP06,0*39
$IIDPT,14.9,0.4,100.0*7B
!AIVDM,1,1,,A,13u=gHP5CgPlvl`Q8gd7?Ekh0d0Q,0*55
$IIRMC,092256,A,5759.147,N,01144.409,E,5.0,36.0,,0.0,E,A*37
$IIRMA,A,5759.147,N,01144.409,E,,,5.0,36.0,0.0,E,A*3F
$IIMTW,16.8,C*1C
$IIVLW,2354.989,N,2338.605,N*4C
$IIVHW,,T,30.0,M,5.2,N,9.6,K*40
$IIHDG,30.0,0,E,0.0,E*64
$IIDPT,14.9,0.4,100.0*7B
!AIVDO,1,1,,,B3uBrjP0<@=Kp?`Bp4dGCwtUwP06,0*6F
$GPRMC,092258,A,5759.150,N,01144.412,E,005.0,035.8,200715,000.0,E*75
$GPRMB,A,,,,,,,,,,,,V*71
$GPGGA,092258,5759.150,N,01144.412,E,1,06,1.9,3.3,M,39.4,M,,*4B
$IIRMC,092256,A,5759.148,N,01144.409,E,5.0,36.0,,0.0,E,A*38
$IIRMA,A,5759.148,N,01144.409,E,,,5.0,36.0,0.0,E,A*30
$IIMTW,16.8,C*1C
$IIVLW,2354.99,N,2338.605,N*74
$IIVHW,,T,32.0,M,5.2,N,9.6,K*42
!AIVDM,1,1,,B,D02R3cPPhNfq6DO6D3,4*28
$IIHDG,32.0,0,E,0.0,E*66
$IIDPT,14.8,0.4,100.0*7A
!AIVDM,1,1,,B,33o<4H0PAP0mv3BQ=MaWS63j0101,0*0A
$GPGSA,A,3,02,,12,14,,24,25,32,,,,,2.7,1.9,2.0*39
$GPGSV,2,1,08,02,21,120,47,06,29,080,00,12,86,124,54,14,41,275,46*7F
$GPGSV,2,2,08,17,13,044,00,24,44,151,47,25,50,259,49,32,10,328,49*70
$PGRME,19.0,M,19.7,M,27.4,M*18
$GPGLL,5759.151,N,01144.413,E,092258,A*23
$PGRMZ,11,f,3*2B
$PGRMM,WGS 84*06
$GPBOD,,T,,M,,*47
$IIRSA,-32,A,,*2d
!AIVDM,1,1,,A,802R5Ph0GhFWMQblfNREgwvlFR06EuOwgqwEwnSwe7wwwwwwsAwwnSomwvwt,0*34
$GPGBS,092258.00,2.0,1.6,3.3,,,,*40
$GPRTE,1,1,c,0*07
$IIRMC,092258,A,5759.150,N,01144.412,E,5.0,35.8,,0.0,E,A*3E
$IIRMA,A,5759.150,N,01144.412,E,,,5.0,35.8,0.0,E,A*38
$IIMTW,16.9,C*1D
$IIVLW,2354.992,N,2338.608,N*4B
$IIVHW,,T,32.0,M,5.1,N,9.5,K*42
$IIHDG,32.0,0,E,0.0,E*66
!AIVDO,1,1,,,B3uBrjP0;h=KpG`Bp5DFWwu5wP06,0*6D
$IIDPT,14.8,0.4,100.0*7A
!AIVDM,1,1,,B,19NSDN51AQ0mup@Q=KbWPn7n0<13,0*4D
!AIVDM,1,1,,B,13u=gHPqknPlvl4Q8g;o>Uel0`Rc,0*2F
$GPRMC,092259.00,A,5759.15201,N,01144.41582,E,4.705,35.03,200715,,,A*5A
$IIRMC,092258,A,5759.150,N,01144.412,E,5.0,35.8,,0.0,E,A*3E
$IIRMA,A,5759.150,N,01144.412,E,,,5.0,35.8,0.0,E,A*38
$IIMTW,16.8,C*1C
$IIVLW,2354.993,N,2338.608,N*4A
$IIVHW,,T,30.0,M,5.1,N,9.5,K*40
$IIHDG,30.0,0,E,0.0,E*64
$IIDPT,14.8,0.4,100.0*7A
!AIVDM,1,1,,A,802R5Ph0GhFWA1blmvREgwvlFR06EuOwgr73wnSwe7wwwwwwsAwwnSomwvwt,0*5E
$GPRMC,092300,A,5759.152,N,01144.414,E,005.0,035.8,200715,000.0,E*7D
$GPRMB,A,,,,,,,,,,,,V*71
$GPGGA,092300,5759.152,N,01144.415,E,1,06,1.9,3.3,M,39.4,M,,*42
!AIVDO,1,1,,,B3uBrjP0;h=KpO8Bp60EswuUwP06,0*0D
$IIRMC,092258,A,5759.151,N,01144.413,E,5.0,35.8,,0.0,E,A*3E
$IIRMA,A,5759.151,N,01144.413,E,,,5.0,35.8,0.0,E,A*38
$IIMTW,16.8,C*1C
$IIVLW,2354.994,N,2338.61,N*74
$IIVHW,,T,31.0,M,5.2,N,9.6,K*41
$IIHDG,31.0,0,E,0.0,E*65
$IIRSA,-34,A,,*2b
$GPGSA,A,3,02,,12,14,,24,25,32,,,,,2.7,1.9,2.0*39
$GPGSV,2,1,08,02,21,120,48,06,29,080,00,12,86,124,53,14,41,275,45*74
$GPGSV,2,2,08,17,13,044,00,24,44,151,48,25,50,259,50,32,10,328,48*76
$PGRME,19.0,M,19.7,M,27.4,M*18
$IIDPT,14.6,0.4,100.0*74
$GPGLL,5759.153,N,01144.416,E,092300,A*28
$PGRMZ,11,f,3*2B
$PGRMM,WGS 84*06
$AITXT,01,01,62,TX attempt failed (msg 18 CP busy )*69
$GPBOD,,T,,M,,*47
!AIVDM,1,1,,B,802R5Ph0GhDpNQbl@6REwwvlFR06EuOwgqwcwnSwe7wwwwwwsAwwnSomwvwt,0*79
$GPRTE,1,1,c,0*07
$IIRMC,092300,A,5759.152,N,01144.415,E,5.0,35.8,,0.0,E,A*37
$IIRMA,A,5759.152,N,01144.415,E,,,5.0,35.8,0.0,E,A*3D
$IIMTW,16.9,C*1D
$IIVLW,2354.994,N,2338.61,N*74
$IIVHW,,T,30.0,M,5.2,N,9.6,K*40
!AIVDO,1,1,,A,B3uBrjP0;h=KpV8Bp6dEkwP5kP06,0*40
$IIHDG,30.0,0,E,0.0,E*64
$IIDPT,14.3,0.4,100.0*71
!AIVDM,1,1,,A,13u=gHPq3WPlvk`Q8fd79Ef00d0Q,0*04
$IIRMC,092300,A,5759.152,N,01144.415,E,5.0,35.8,,0.0,E,A*37
$IIRMA,A,5759.153,N,01144.416,E,,,5.0,35.8,0.0,E,A*3F
$IIMTW,16.9,C*1D
$IIVLW,2354.995,N,2338.611,N*44
$IIVHW,,T,32.0,M,5.1,N,9.5,K*42
$IIHDG,32.0,0,E,0.0,E*66
!AIVDM,1,1,,B,13bvpB001g0lO=2Q7DMptWB2059L,0*77
!AIVDM,1,1,,B,802R5Ph0GhDowiblsfREwwvlFR06EuOwgwl>72p0a9h6lCwwsAwwnSomwvwt,0*47
$IIDPT,14.7,0.4,100.0*75
$IIRSA,-36,A,,*29
!AIVDM,1,1,,A,802R5Ph0GhDowiblsfREwwvlFR06EuOwgwl>72p0a9h6lCwwsAwwnSomwvwt,0*44
!AIVDM,1,1,,A,33o<4H0PAP0mv28Q=MDGSV000000,0*7E
$GPRMC,092302,A,5759.154,N,01144.417,E,004.9,035.9,200715,000.0,E*73
$GPRMB,A,,,,,,,,,,,,V*71
$GPGGA,092302,5759.155,N,01144.418,E,1,06,1.9,3.8,M,39.4,M,,*41
!AIVDO,1,1,,,B3uBrjP0;P=Kpe8Bp7DESwPUwP06,0*6F
!AIVDM,1,1,,A,402R3cQuur9G10o<l6Q0lDi00<5F,0*28
$IIRMC,092300,A,5759.153,N,01144.416,E,5.0,35.8,,0.0,E,A*35
$IIRMA,A,5759.153,N,01144.416,E,,,5.0,35.8,0.0,E,A*3F
$IIMTW,16.8,C*1C
$IIVLW,2354.996,N,2338.612,N*44
$IIVHW,,T,31.0,M,5.1,N,9.4,K*40
$GPGSA,A,3,02,,12,14,,24,25,32,,,,,2.7,1.9,2.0*39
$GPGSV,2,1,08,02,21,120,46,06,29,080,00,12,86,124,53,14,41,275,45*7A
$GPGSV,2,2,08,17,13,044,00,24,44,151,46,25,50,259,50,32,10,328,44*74
$PGRME,19.0,M,19.7,M,27.4,M*18
$IIHDG,31.0,0,E,0.0,E*65
$IIDPT,15.4,0.4,100.0*77
$GPGLL,5759.155,N,01144.418,E,092302,A*22
$PGRMZ,14,f,3*2E
$PGRMM,WGS 84*06
$GPGBS,092302.00,2.0,1.6,3.3,,,,*4E
$GPBOD,,T,,M,,*47
$GPRTE,1,1,c,0*07
$IIRMC,092302,A,5759.155,N,01144.418,E,4.9,35.9,,0.0,E,A*36
$IIRMA,A,5759.155,N,01144.418,E,,,4.9,35.9,0.0,E,A*3E
$IIMTW,16.9,C*1D
$IIVLW,2354.997,N,2338.613,N*44
$IIVHW,,T,32.0,M,5.1,N,9.4,K*43
!AIVDO,1,1,,,B3uBrjP0<@=Kpl8Bp84EWwQ5wP06,0*6B
$GPRMC,092303.00,A,5759.15656,N,01144.42149,E,4.876,39.30,200715,,,A*55
$IIHDG,32.0,0,E,0.0,E*66
$IIDPT,15.6,0.4,100.0*75
$IIRSA,-38,A,,*27
!AIVDM,2,1,1,B,59NSDN42CE=DCD<oN21<T9E:1Hu8tpE`R222221D?hR8B5s<0A5Dm;C5AhH8,0*3E
!AIVDM,2,2,1,B,88888888883,2*25
$IIRMC,092302,A,5759.155,N,01144.418,E,4.9,35.9,,0.0,E,A*36
$IIRMA,A,5759.155,N,01144.418,E,,,4.9,35.9,0.0,E,A*3E
$IIMTW,16.9,C*1D
$IIVLW,2354.998,N,2338.614,N*4C
$IIVHW,,T,32.0,M,5.2,N,9.6,K*42
$IIHDG,32.0,0,E,0.0,E*66
$IIDPT,15.7,0.4,100.0*74
$GPRMC,092304,A,5759.158,N,01144.422,E,005.0,035.7,200715,000.0,E*79
$GPRMB,A,,,,,,,,,,,,V*71
$GPGGA,092304,5759.158,N,01144.422,E,1,06,1.9,4.5,M,39.4,M,,*49
!AIVDO,1,1,,,B3uBrjP0<0=Kps8Bp8lHWwQUsP06,0*35
!AIVDM,1,1,,B,B39I4gP010=@SE`AurI6KwP5kP06,0*40
$GPGSA,A,3,02,,12,14,,24,25,32,,,,,2.7,1.9,2.0*39
$GPGSV,2,1,08,02,21,120,46,06,29,080,00,12,86,124,54,14,41,275,44*7C
$GPGSV,2,2,08,17,13,044,00,24,44,151,45,25,50,259,48,32,10,328,47*7D
$PGRME,19.0,M,19.7,M,27.4,M*18
$IIRMC,092302,A,5759.155,N,01144.418,E,4.9,35.9,,0.0,E,A*36
$IIRMA,A,5759.155,N,01144.418,E,,,4.9,35.9,0.0,E,A*3E
$IIMTW,16.8,C*1C
$IIVLW,2354.998,N,2338.614,N*4C
$IIVHW,,T,31.0,M,5.2,N,9.5,K*42
$IIHDG,31.0,0,E,0.0,E*65
$GPGLL,5759.158,N,01144.423,E,092304,A*21
$PGRMZ,15,f,3*2F
$PGRMM,WGS 84*06
$GPBOD,,T,,M,,*47
$IIDPT,15.8,0.4,100.0*7B
!AIVDM,1,1,,B,802R5Ph0GhDpNQbl@6REwwvlFR06EuOwgqwcwnSwe7wwwwwwsAwwnSomwvwt,0*79
$GPRTE,1,1,c,0*07
$IIRSA,-40,A,,*28
!AIVDO,1,1,,,B3uBrjP0<0=Kq38Bp9PGgwR5wP06,0*11
!AIVDM,1,1,,A,402R3dAuur9G40n7AJQIf910059L,0*38
$IIRMC,092304,A,5759.158,N,01144.422,E,5.0,35.7,,0.0,E,A*32
$IIRMA,A,5759.158,N,01144.422,E,,,5.0,35.7,0.0,E,A*3C
$IIMTW,16.8,C*1C
$IIVLW,2355.00,N,2338.616,N*77
$IIVHW,,T,32.0,M,5.2,N,9.6,K*42
$IIHDG,32.0,0,E,0.0,E*66
$IIDPT,15.9,0.4,100.0*7A
!AIVDM,1,1,,B,802R5Ph0GhDowiblsfREwwvlFR06EuOwgwl>72p0a9h6lCwwsAwwnSomwvwt,0*47
$IIRMC,092304,A,5759.158,N,01144.423,E,5.0,35.7,,0.0,E,A*33
$IIRMA,A,5759.158,N,01144.423,E,,,5.0,35.7,0.0,E,A*3D
$IIMTW,16.9,C*1D
$IIVLW,2355.001,N,2338.617,N*47
$IIVHW,,T,31.0,M,5.1,N,9.4,K*40
!AIVDM,1,1,,A,13v5NH001B0mEHBQ9CIS:jN<059L,0*63
!AIVDM,1,1,,B,13u=KCPP010mBPtQ2aWU6Ov:00S2,0*09
$IIHDG,31.0,0,E,0.0,E*65
$GPRMC,092306,A,5759.160,N,01144.424,E,005.0,035.6,200715,000.0,E*77
$GPRMB,A,,,,,,,,,,,,V*71
$GPGGA,092306,5759.159,N,01144.423,E,1,06,1.9,4.0,M,39.4,M,,*4E
$IIDPT,15.8,0.4,100.0*7B
!AIVDO,1,1,,,B3uBrjP0;h=Kq;8Bp:8EkwRUwP06,0*43
$GPGSA,A,3,02,,12,14,,24,25,32,,,,,2.7,1.9,2.0*39
$GPGSV,2,1,08,02,21,120,48,06,29,080,00,12,86,124,54,14,41,275,41*77
$GPGSV,2,2,08,17,13,044,00,24,44,151,43,25,50,259,51,32,10,328,47*73
$PGRME,19.0,M,19.7,M,27.4,M*18
$IIRMC,092304,A,5759.158,N,01144.423,E,5.0,35.7,,0.0,E,A*33
$IIRMA,A,5759.158,N,01144.423,E,,,5.0,35.7,0.0,E,A*3D
$IIMTW,16.8,C*1C
$IIVLW,2355.003,N,2338.618,N*4A
$GPGLL,5759.160,N,01144.424,E,092306,A*2F
$PGRMZ,13,f,3*29
$IIRSA,-38,A,,*27
$PGRMM,WGS 84*06
$IIVHW,,T,31.0,M,5.0,N,9.2,K*47
$GPGBS,092306.00,2.0,1.6,3.3,,,,*4A
$GPBOD,,T,,M,,*47
$IIHDG,31.0,0,E,0.0,E*65
!AIVDM,1,1,,B,802R5Ph0GhFln9`9p>REiHj;iN06EuOwgwl?wnSwe7wwwwwwsAwwnSomwvwt,0*58
!AIVDM,1,1,,A,802R5Ph0GhFln9`9p>REiHj;iN06EuOwgwl?wnSwe7wwwwwwsAwwnSomwvwt,0*5B
$GPRTE,1,1,c,0*07
$IIDPT,15.6,0.4,100.0*75
$GPRMC,092307.00,A,5759.16073,N,01144.42733,E,4.655,36.25,200715,,,A*5C
!AIVDO,1,1,,,B3uBrjP0;P=KqH`Bp;LFcwSUsP06,0*2B
!AIVDM,1,1,,B,13u=gHP4SPPlvinQ8e>7;Uj<0d0R,0*61
$IIRMC,092306,A,5759.159,N,01144.423,E,5.0,35.6,,0.0,E,A*31
$IIRMA,A,5759.159,N,01144.423,E,,,5.0,35.6,0.0,E,A*3D
$IIMTW,16.8,C*1C
$IIVLW,2355.003,N,2338.619,N*4B
$IIVHW,,T,31.0,M,5.0,N,9.3,K*46
!AIVDM,1,1,,B,B39dE`P0Cp=?U4`B4h7N3wSUoP06,0*60
$IIHDG,31.0,0,E,0.0,E*65
$IIDPT,15.6,0.4,100.0*75
!AIVDM,1,1,,A,802R5Ph0GhFoWA`;26REwwvlFR06EuOwgqw5wnSwe7wwwwwwsAwwnSomwvwt,0*1F
!AIVDM,1,1,,A,B3uJOB0008=Hw=8C3sPIGwSUoP06,0*7F
$IIRMC,092306,A,5759.160,N,01144.424,E,5.0,35.6,,0.0,E,A*3C
$IIRMA,A,5759.160,N,01144.424,E,,,5.0,35.6,0.0,E,A*30
$IIMTW,16.9,C*1D
$IIVLW,2355.004,N,2338.62,N*76
$IIVHW,,T,29.0,M,5.0,N,9.3,K*4F
$GPRMC,092308,A,5759.161,N,01144.427,E,005.0,035.1,200715,000.0,E*7C
$GPRMB,A,,,,,,,,,,,,V*71
$GPGGA,092308,5759.162,N,01144.427,E,1,06,1.9,4.0,M,39.4,M,,*4C
!AIVDM,1,1,,B,802R5Ph0GhFoWA`;26REwwvlFR06EuOwgqw5wnSwe7wwwwwwsAwwnSomwvwt,0*1C
$IIHDG,29.0,0,E,0.0,E*6C
$IIDPT,15.6,0.4,100.0*75
$IIRSA,-36,A,,*29
!AIVDO,1,1,,,B3uBrjP0;P=KqO`Bp<4FowT5wP06,0*3C
$GPGSA,A,3,02,,12,14,,24,25,32,,,,,2.7,1.9,2.0*39
$GPGSV,2,1,08,02,21,120,48,06,29,080,00,12,86,124,53,14,41,275,43*72
$GPGSV,2,2,08,17,13,044,00,24,44,151,45,25,50,259,50,32,09,327,47*73
$PGRME,19.0,M,19.7,M,27.4,M*18
$GPGLL,5759.163,N,01144.428,E,092308,A*2E
$PGRMZ,13,f,3*29
$PGRMM,WGS 84*06
$IIRMC,092306,A,5759.160,N,01144.424,E,5.0,35.6,,0.0,E,A*3C
$IIRMA,A,5759.162,N,01144.427,E,,,5.0,35.1,0.0,E,A*36
$IIMTW,16.9,C*1D
$IIVLW,2355.005,N,2338.62,N*77
$IIVHW,,T,30.0,M,5.0,N,9.2,K*46
$GPBOD,,T,,M,,*47
$IIHDG,30.0,0,E,0.0,E*64
$GPRTE,1,1,c,0*07
!AIVDM,1,1,,B,802R5Ph0GhDpNQbl@6REwwvlFR06EuOwgqwcwnSwe7wwwwwwsAwwnSomwvwt,0*79
$IIDPT,15.5,0.4,100.0*76
!AIVDM,1,1,,A,13u=gHPvC`Plvi@Q8deoAUj@0`5K,0*32
!AIVDO,1,1,,,B3uBrjP0;h=KqW8Bp<dFowTUwP06,0*74
$IIRMC,092308,A,5759.162,N,01144.427,E,5.0,35.1,,0.0,E,A*34
$IIRMA,A,5759.162,N,01144.427,E,,,5.0,35.1,0.0,E,A*36
$IIMTW,16.8,C*1C
$IIVLW,2355.005,N,2338.621,N*46
$IIVHW,,T,29.0,M,5.0,N,9.2,K*4E
$IIHDG,29.0,0,E,0.0,E*6C
$IIDPT,15.2,0.4,100.0*71
!AIVDM,1,1,,A,19NSDN5w1Q0mul<Q=JS7RV6D00R2,0*37
$GPRMC,092310,A,5759.164,N,01144.431,E,005.1,035.2,200715,000.0,E*75
$GPRMB,A,,,,,,,,,,,,V*71
$IIRSA,-34,A,,*2b
$GPGGA,092310,5759.164,N,01144.431,E,1,06,1.9,3.9,M,39.4,M,,*4A
$IIRMC,092308,A,5759.163,N,01144.428,E,5.0,35.1,,0.0,E,A*3A
$IIRMA,A,5759.163,N,01144.428,E,,,5.0,35.1,0.0,E,A*38
$IIMTW,16.9,C*1D
$IIVLW,2355.008,N,2338.623,N*49
$IIVHW,,T,31.0,M,5.0,N,9.2,K*47
$IIHDG,31.0,0,E,0.0,E*65
$IIDPT,15.3,0.4,100.0*70
!AIVDO,1,1,,,B3uBrjP0;h=Kqf8Bp=DDCwU5wP06,0*2B
$GPGSA,A,3,02,,12,14,,24,25,32,,,,,2.7,1.9,2.0*39
$GPGSV,2,1,08,02,21,120,44,06,29,080,00,12,86,124,54,14,41,275,46*7C
$GPGSV,2,2,08,17,13,044,00,24,44,151,45,25,50,259,47,32,09,327,48*7A
$PGRME,19.0,M,19.7,M,27.4,M*18
$GPGLL,5759.165,N,01144.432,E,092310,A*2A
$PGRMZ,13,f,3*29
$PGRMM,WGS 84*06
$GPGBS,092310.00,1.9,1.6,3.3,,,,*47
$GPBOD,,T,,M,,*47
$IIRMC,092310,A,5759.164,N,01144.431,E,5.1,35.2,,0.0,E,A*3E
$IIRMA,A,5759.164,N,01144.431,E,,,5.1,35.2,0.0,E,A*35
$IIMTW,16.9,C*1D
$IIVLW,2355.008,N,2338.624,N*4E
$IIVHW,,T,29.0,M,5.0,N,9.2,K*4E
$GPRTE,1,1,c,0*07
!AIVDM,1,1,,A,802R5Ph0GhFln9`9p>REiHj;iN06EuOwgwl?wnSwe7wwwwwwsAwwnSomwvwt,0*5B
!AIVDM,1,1,,B,802R5Ph0GhFln9`9p>REiHj;iN06EuOwgwl?wnSwe7wwwwwwsAwwnSomwvwt,0*58
$IIHDG,29.0,0,E,0.0,E*6C
$IIDPT,15.3,0.4,100.0*70
$GPRMC,092311.00,A,5759.16484,N,01144.43304,E,4.706,34.60,200715,,,A*52
!AIVDO,1,1,,,B3uBrjP0;h=Kqm8Bp>0EcwUUwP06,0*16
$IIRMC,092310,A,5759.164,N,01144.431,E,5.1,35.2,,0.0,E,A*3E
$IIRMA,A,5759.164,N,01144.431,E,,,5.1,35.2,0.0,E,A*35
$IIMTW,16.8,C*1C
$IIRSA,-32,A,,*2d
$IIVLW,2355.009,N,2338.624,N*4F
$IIVHW,,T,29.0,M,4.9,N,9.2,K*46
$IIHDG,29.0,0,E,0.0,E*6C
$IIDPT,15.3,0.4,100.0*70
!AIVDM,1,1,,A,802R5Ph0GhFoWA`;26REwwvlFR06EuOwgqw5wnSwe7wwwwwwsAwwnSomwvwt,0*1F
!AIVDM,1,1,,B,33o<4H001Q0muvVQ=L?WRF4D0000,0*4E
$GPRMC,092312,A,5759.167,N,01144.434,E,005.1,034.8,200715,000.0,E*7A
$GPRMB,A,,,,,,,,,,,,V*71
$GPGGA,092312,5759.167,N,01144.435,E,1,06,1.9,4.0,M,39.4,M,,*41
$IIRMC,092310,A,5759.165,N,01144.432,E,5.1,35.2,,0.0,E,A*3C
$IIRMA,A,5759.165,N,01144.432,E,,,5.1,35.2,0.0,E,A*37
$IIMTW,16.8,C*1C
$IIVLW,2355.01,N,2338.625,N*76
$IIVHW,,T,28.0,M,4.9,N,9.0,K*45
$IIHDG,28.0,0,E,0.0,E*6D
!AIVDM,1,1,,B,402R3cQuur9G;0o<l6Q0lDi0087=,0*5C
!AIVDM,1,1,,B,D02R3d@6dNfp00O6D2,4*27
!AIVDO,1,1,,,B3uBrjP0;@=Kqs`Bp>dDcwV5wP06,0*4E
$IIDPT,15.7,0.4,100.0*74
!AIVDM,1,1,,A,13bvpB001g0lNuhQ7CV`toBH0@7B,0*5C
$GPGSA,A,3,02,,12,14,,24,25,32,,,,,2.7,1.9,2.0*39
$GPGSV,2,1,08,02,21,120,45,06,29,080,00,12,86,124,54,14,41,275,45*7E
$GPGSV,2,2,08,17,13,044,00,24,44,151,38,25,50,259,48,32,09,327,50*76
$PGRME,19.0,M,19.7,M,27.4,M*18
$GPGLL,5759.168,N,01144.435,E,092312,A*22
$PGRMZ,13,f,3*29
$PGRMM,WGS 84*06
!AIVDM,1,1,,A,B3@nfOP0@P=JRs8Bd<LGgwV5kP06,0*11
$GPBOD,,T,,M,,*47
!AIVDM,1,1,,B,802R5Ph0GhFoWA`;26REwwvlFR06EuOwgqw5wnSwe7wwwwwwsAwwnSomwvwt,0*1C
$GPRTE,1,1,c,0*07
$IIRSA,-30,A,,*2f
$IIRMC,092312,A,5759.167,N,01144.435,E,5.1,34.8,,0.0,E,A*30
$IIRMA,A,5759.167,N,01144.435,E,,,5.1,34.8,0.0,E,A*39
$IIMTW,16.9,C*1D
$IIVLW,2355.011,N,2338.626,N*44
$IIVHW,,T,29.0,M,5.0,N,9.2,K*4E
$IIHDG,29.0,0,E,0.0,E*6C
$IIDPT,15.6,0.4,100.0*75
!AIVDM,1,1,,A,D02R3cQk8Nfr:hO6D<,4*6D
!AIVDO,1,1,,,B3uBrjP0;P=Kr1`Bp?LD7wVUwP06,0*02
!AIVDM,1,1,,A,13u=gHPqSIPlvh4Q8cfo7mfH0l0S,0*26
$IIRMC,092312,A,5759.167,N,01144.435,E,5.1,34.8,,0.0,E,A*30
$IIRMA,A,5759.167,N,01144.435,E,,,5.1,34.8,0.0,E,A*39
$IIMTW,16.8,C*1C
$IIVLW,2355.012,N,2338.627,N*46
$IIVHW,,T,28.0,M,4.9,N,9.0,K*45
$IIHDG,28.0,0,E,0.0,E*6D
$IIDPT,15.6,0.4,100.0*75
$GPRMC,092314,A,5759.169,N,01144.437,E,005.1,034.5,200715,000.0,E*7C
$GPRMB,A,,,,,,,,,,,,V*71
$GPGGA,092314,5759.169,N,01144.437,E,1,06,1.9,4.0,M,39.4,M,,*4B
!AIVDM,1,1,,A,B39JUq00<p=F2s8BEDLiGwW5oP06,0*43
$IIRMC,092312,A,5759.167,N,01144.435,E,5.1,34.8,,0.0,E,A*30
$IIRMA,A,5759.167,N,01144.435,E,,,5.1,34.8,0.0,E,A*39
$IIMTW,16.9,C*1D
$IIVLW,2355.012,N,2338.628,N*49
$IIVHW,,T,26.0,M,4.9,N,9.2,K*49
$IIHDG,27.0,0,E,0.0,E*62
!AIVDO,1,1,,,B3uBrjP0;P=Kr78Bp@8E7wW5wP06,0*37
$GPGSA,A,3,02,,12,14,,24,25,32,,,,,2.7,1.9,2.0*39
$GPGSV,2,1,08,02,21,120,47,06,29,080,00,12,86,124,52,14,41,275,46*79
$GPGSV,2,2,08,17,13,044,00,24,44,151,44,25,50,259,47,32,09,327,49*7A
$PGRME,19.0,M,19.7,M,27.4,M*18
$IIDPT,15.8,0.4,100.0*7B
$IIRSA,-28,A,,*26
$GPGLL,5759.169,N,01144.437,E,092314,A*27
$PGRMZ,13,f,3*29
$PGRMM,WGS 84*06
$GPGBS,092314.00,1.9,1.5,3.3,,,,*40
$GPBOD,,T,,M,,*47
$GPRTE,1,1,c,0*07
!AIVDM,1,1,,B,802R5Ph0GhF?qQbHIFREwwvlFR06EuOwiOl?wnSwe7wwwwwwsAwwnSomwvwt,0*21
!AIVDM,1,1,,B,802R5Ph0GhFln9`9p>REiHj;iN06EuOwgwl?wnSwe7wwwwwwsAwwnSomwvwt,0*58
$IIRMC,092314,A,5759.169,N,01144.437,E,5.1,34.5,,0.0,E,A*37
$IIRMA,A,5759.169,N,01144.437,E,,,5.1,34.5,0.0,E,A*38
$IIMTW,16.9,C*1D
$IIVLW,2355.014,N,2338.63,N*76
$IIVHW,,T,27.0,M,5.0,N,9.2,K*40
!AIVDM,1,1,,A,802R5Ph0GhFln9`9p>REiHj;iN06EuOwgwl?wnSwe7wwwwwwsAwwnSomwvwt,0*5B
$IIHDG,27.0,0,E,0.0,E*62
$IIDPT,16.0,0.4,100.0*70
!AIVDM,1,1,,B,402R3dAuur9G>0n7AJQIf9A00D3e,0*13
$GPRMC,092315.00,A,5759.16933,N,01144.43787,E,4.703,33.22,200715,,,A*5C
!AIVDM,1,1,,B,13u=gHPokVPlvgtQ8c?72mbL0`8v,0*76
!AIVDO,1,1,,,B3uBrjP0;h=Kr=8Bp@lDkwWUwP06,0*6C
!AIVDM,1,1,,A,33o<4H0OiP0muu8Q=KnWSF8L0100,0*54
$IIRMC,092314,A,5759.169,N,01144.437,E,5.1,34.5,,0.0,E,A*37
$IIRMA,A,5759.169,N,01144.437,E,,,5.1,34.5,0.0,E,A*38
$IIMTW,16.9,C*1D
$IIVLW,2355.015,N,2338.631,N*46
$IIVHW,,T,26.0,M,4.9,N,9.2,K*49
$IIHDG,26.0,0,E,0.0,E*63
!AIVDM,1,1,,B,13v5NH001B0mEUHQ9CSk6RLP089D,0*0A
$IIDPT,16.0,0.4,100.0*70
$GPRMC,092316,A,5759.171,N,01144.439,E,004.9,033.8,200715,000.0,E*7A
$GPRMB,A,,,,,,,,,,,,V*71
$IIRSA,-26,A,,*28
$GPGGA,092316,5759.171,N,01144.439,E,1,06,1.9,4.0,M,39.4,M,,*4E
!AIVDM,1,1,,A,13M40b00010mTvhQ<IN7:3:L0<0i,0*6E
!AIVDM,1,1,,B,802R5Ph0GhErLAacJ6REwwvlFR06EuOwiJ13wnSwe7wwwwwwsAwwnSomwvwt,0*4D
!AIVDM,1,1,,A,802R5Ph0GhFoWA`;26REwwvlFR06EuOwgqw5wnSwe7wwwwwwsAwwnSomwvwt,0*1F
$IIRMC,092314,A,5759.169,N,01144.437,E,5.1,34.5,,0.0,E,A*37
$IIRMA,A,5759.169,N,01144.437,E,,,5.1,34.5,0.0,E,A*38
$IIMTW,16.9,C*1D
$IIVLW,2355.016,N,2338.632,N*46
$IIVHW,,T,27.0,M,4.9,N,9.2,K*48
!AIVDO,1,1,,,B3uBrjP0;P=KrC8BpAPBkw`5wP06,0*46
$GPGSA,A,3,02,,12,14,,24,25,32,,,,,2.7,1.9,2.0*39
$GPGSV,2,1,08,02,21,120,46,06,29,080,00,12,86,124,53,14,41,275,48*77
$GPGSV,2,2,08,17,13,044,00,24,44,151,45,25,50,259,48,32,09,327,47*7A
$PGRME,19.0,M,19.7,M,27.4,M*18
$IIHDG,27.0,0,E,0.0,E*62
!AIVDM,1,1,,B,802R5Ph0GhFoWA`;26REwwvlFR06EuOwgqw5wnSwe7wwwwwwsAwwnSomwvwt,0*1C
$IIDPT,15.9,0.4,100.0*7A
$GPGLL,5759.171,N,01144.439,E,092316,A*22
$PGRMZ,14,f,3*2E
$PGRMM,WGS 84*06
$GPBOD,,T,,M,,*47
$GPRTE,1,1,c,0*07
!AIVDM,1,1,,B,802R5Ph0GhGP<aWfR>REi7v;AJ06EuOwgqw=wnSwe7wwwwwwsAwwnSomwvwt,0*75
!AIVDM,1,1,,A,802R5Ph0GhGP<aWfR>REi7v;AJ06EuOwgqw=wnSwe7wwwwwwsAwwnSomwvwt,0*76
$IIRMC,092316,A,5759.171,N,01144.439,E,4.9,33.8,,0.0,E,A*31
$IIRMA,A,5759.171,N,01144.439,E,,,4.9,33.8,0.0,E,A*3C
$IIMTW,16.7,C*13
$IIVLW,2355.017,N,2338.632,N*47
$IIVHW,,T,29.0,M,4.8,N,9.0,K*45
$IIHDG,29.0,0,E,0.0,E*6C
$IIDPT,15.5,0.4,100.0*76
!AIVDO,1,1,,,B3uBrjP0;@=KrI8BpB8Aww`UwP06,0*48
$IIRMC,092316,A,5759.171,N,01144.439,E,4.9,33.8,,0.0,E,A*31
$IIRMA,A,5759.171,N,01144.439,E,,,4.9,33.8,0.0,E,A*3C
$IIMTW,16.8,C*1C
$IIVLW,2355.018,N,2338.634,N*4E
$IIVHW,,T,28.0,M,4.8,N,9.0,K*44
$IIHDG,28.0,0,E,0.0,E*6D
!AIVDM,1,1,,A,802R5Ph0GhDwkib0fNREjAAr?B06EuOwgwl?wnSwe7wwwwwwsAwwnSomwvwt,0*48
!AIVDM,1,1,,B,802R5Ph0GhDwkib0fNREjAAr?B06EuOwgwl?wnSwe7wwwwwwsAwwnSomwvwt,0*4B
$IIDPT,15.5,0.4,100.0*76
$GPRMC,092318,A,5759.173,N,01144.441,E,004.8,032.9,200715,000.0,E*78
$GPRMB,A,,,,,,,,,,,,V*71
$GPGGA,092318,5759.173,N,01144.442,E,1,06,1.9,4.0,M,39.4,M,,*4E
!AIVDM,1,1,,B,19NSDN5wAQ0muhlQ=IWWRn6T059L,0*4F
$IIRMC,092316,A,5759.171,N,01144.439,E,4.9,33.8,,0.0,E,A*31
$IIRMA,A,5759.171,N,01144.439,E,,,4.9,33.8,0.0,E,A*3C
$IIMTW,16.8,C*1C
$IIVLW,2355.018,N,2338.634,N*4E
$IIVHW,,T,28.0,M,4.8,N,8.9,K*4C
$GPGSA,A,3,02,,12,14,,24,25,32,,,,,2.7,1.9,2.0*39
$GPGSV,2,1,08,02,21,120,46,06,29,080,00,12,86,124,53,14,41,275,44*7B
$GPGSV,2,2,08,17,13,044,00,24,44,151,44,25,50,259,49,32,09,327,46*7B
$PGRME,19.0,M,19.7,M,27.4,M*18
!AIVDO,1,1,,,B3uBrjP0;0=KrN8BpBpCGwa5wP06,0*24
$IIHDG,28.0,0,E,0.0,E*6D
$GPGLL,5759.173,N,01144.442,E,092318,A*22
$PGRMZ,13,f,3*29
$PGRMM,WGS 84*06
$IIDPT,15.4,0.4,100.0*77
$GPBOD,,T,,M,,*47
$GPGBS,092318.00,1.9,1.6,3.3,,,,*4F
$GPRTE,1,1,c,0*07
!AIVDM,1,1,,A,802R5Ph0GhFln9`9p>REiHj;iN06EuOwgwl?wnSwe7wwwwwwsAwwnSomwvwt,0*5B
!AIVDM,1,1,,B,802R5Ph0GhFln9`9p>REiHj;iN06EuOwgwl?wnSwe7wwwwwwsAwwnSomwvwt,0*58
$GPRMC,092319.00,A,5759.17382,N,01144.44254,E,4.610,35.27,200715,,,A*5D
$IIRMC,092316,A,5759.171,N,01144.439,E,4.9,33.8,,0.0,E,A*31
$IIRMA,A,5759.171,N,01144.439,E,,,4.9,33.8,0.0,E,A*3C
$IIMTW,16.9,C*1D
$IIVLW,2355.019,N,2338.635,N*4E
$IIVHW,,T,21.0,M,4.9,N,9.0,K*4C
!AIVDM,1,1,,B,13u=gHPt3cPlvglQ8b>W4m`T0d0T,0*4A
$IIHDG,21.0,0,E,0.0,E*64
$IIDPT,15.6,0.4,100.0*75
!AIVDO,1,1,,,B3uBrjP0;P=KrT`BpC`F3waUwP06,0*06
$IIRMC,092318,A,5759.173,N,01144.442,E,4.8,32.9,,0.0,E,A*30
$IIRMA,A,5759.173,N,01144.442,E,,,4.8,32.9,0.0,E,A*33
$IIMTW,16.9,C*1D
$IIVLW,2355.021,N,2338.637,N*47
$IIVHW,,T,23.0,M,4.9,N,9.1,K*4F
$IIHDG,23.0,0,E,0.0,E*66
!AIVDM,1,1,,B,802R5Ph0GhFoWA`;26REwwvlFR06EuOwgqw5wnSwe7wwwwwwsAwwnSomwvwt,0*1C
$IIDPT,15.6,0.4,100.0*75
$GPRMC,092320,A,5759.174,N,01144.443,E,004.7,032.7,200715,000.0,E*77
$GPRMB,A,,,,,,,,,,,,V*71
$GPGGA,092320,5759.174,N,01144.444,E,1,06,1.9,3.9,M,39.4,M,,*4A
!AIVDM,1,1,,A,802R5Ph0GhFoWA`;26REwwvlFR06EuOwgqw5wnSwe7wwwwwwsAwwnSomwvwt,0*1F
$GPGSA,A,3,02,,12,14,,24,25,32,,,,,2.7,1.9,2.0*39
$GPGSV,2,1,08,02,21,120,48,06,29,080,00,12,86,124,51,14,41,275,47*74
$GPGSV,2,2,08,17,13,044,00,24,44,151,42,25,50,259,49,32,09,327,47*7C
$PGRME,19.0,M,19.7,M,27.4,M*18
!AIVDO,1,1,,,B3uBrjP0;P=Krb`BpDDCswb5wP06,0*35
$IIRMC,092318,A,5759.173,N,01144.442,E,4.8,32.9,,0.0,E,A*30
$IIRMA,A,5759.173,N,01144.442,E,,,4.8,32.9,0.0,E,A*33
$IIMTW,16.9,C*1D
$IIVLW,2355.022,N,2338.637,N*44
$IIVHW,,T,24.0,M,4.9,N,9.0,K*49
$GPGLL,5759.175,N,01144.444,E,092320,A*29
$PGRMZ,13,f,3*29
$PGRMM,WGS 84*06
$IIHDG,24.0,0,E,0.0,E*61
$GPBOD,,T,,M,,*47
$IIDPT,15.6,0.4,100.0*75
$GPRTE,1,1,c,0*07
$IIRMC,092318,A,5759.173,N,01144.442,E,4.8,32.9,,0.0,E,A*30
$IIRMA,A,5759.173,N,01144.442,E,,,4.8,32.9,0.0,E,A*33
$IIMTW,16.9,C*1D
$IIVLW,2355.022,N,2338.638,N*4B
$IIVHW,,T,26.0,M,4.9,N,9.1,K*4A
!AIVDM,1,1,,A,13u=gHPvCVPlvgjQ8afW1Ub`0`<P,0*54
!AIVDM,1,1,,B,13bvpB001g0lNi@Q7BpptGBb0<19,0*5F
$IIHDG,26.0,0,E,0.0,E*63
!AIVDM,1,1,,A,802R5Ph0GhGP<aWfR>REi7v;AJ06EuOwgqw=wnSwe7wwwwwwsAwwnSomwvwt,0*76
$IIDPT,15.4,0.4,100.0*77
!AIVDO,1,1,,,B3uBrjP0;@=Krh`BpE0?WwbUwP06,0*62
$IIRMC,092320,A,5759.175,N,01144.444,E,4.7,32.7,,0.0,E,A*3A
$IIRMA,A,5759.175,N,01144.444,E,,,4.7,32.7,0.0,E,A*32
$IIMTW,16.9,C*1D
$IIVLW,2355.023,N,2338.639,N*4B
$IIVHW,,T,26.0,M,5.0,N,9.3,K*40
$IIHDG,27.0,0,E,0.0,E*62
$GPRMC,092322,A,5759.176,N,01144.446,E,004.7,032.3,200715,000.0,E*76
$GPRMB,A,,,,,,,,,,,,V*71
$GPGGA,092322,5759.177,N,01144.446,E,1,06,1.9,4.0,M,39.4,M,,*47
$IIDPT,15.3,0.4,100.0*70
!AIVDM,1,1,,A,402R3cQuur9GE0o<l4Q0lDi000S:,0*48
!AIVDM,1,1,,A,33o<4H0OiP0mur4Q=K:7`FFb0000,0*09
$GPGSA,A,3,02,,12,14,,24,25,32,,,,,2.7,1.9,2.0*39
$GPGSV,2,1,08,02,21,120,47,06,29,080,00,12,86,124,52,14,41,275,42*7D
$GPGSV,2,2,08,17,13,044,00,24,44,151,45,25,50,259,48,32,09,327,48*75
$PGRME,19.0,M,19.7,M,27.4,M*18
!AIVDM,1,1,,A,33uAC7POhn0n;6FQA1mKaJ0f2000,0*12
!AIVDO,1,1,,,B3uBrjP0;P=Krm`BpEd?Swc5wP06,0*46
$GPGBS,092322.00,1.9,1.5,3.3,,,,*45
